{"stores":[{"OpenDay0":"0","OpenDay1":"9-20","address":"Valtatie 1","city":"TOIJALA","postalCode":"37800","latitude":61.167988,"link":"https://www.alko.fi/tuotteet&#63;SearchParameter=%26%40QueryTerm%3D*%26OnlineFlag%3D1%26productInStore%3D2440&productInStore=2440&SelectedFilter=AvailabilityGroup&PageSize=1000","storeId":"2440","uuid":"up7AqHilwDUAAAFVyWowMkn5","outletTypeId":"outletType_myymalat","phone":"020 711 2440","name":"Alko Akaa Toijala","longitude":23.8672},{"OpenDay0":"0","OpenDay1":"9-18","address":"Yrittäjäntie 5","city":"ALAJÄRVI","postalCode":"62900","latitude":63.00491619,"link":"https://www.alko.fi/tuotteet&#63;SearchParameter=%26%40QueryTerm%3D*%26OnlineFlag%3D1%26productInStore%3D2277&productInStore=2277&SelectedFilter=AvailabilityGroup&PageSize=1000","storeId":"2277","uuid":"pSnAqHilwaYAAAFVmvowMkn3","outletTypeId":"outletType_myymalat","phone":"020 711 2277","name":"Alko Alajärvi","longitude":23.80425672},{"OpenDay0":"0","OpenDay1":"9-20","address":"Onnentie 7","city":"TUURI","postalCode":"63610","latitude":62.603885,"link":"https://www.alko.fi/tuotteet&#63;SearchParameter=%26%40QueryTerm%3D*%26OnlineFlag%3D1%26productInStore%3D2282&productInStore=2282&SelectedFilter=AvailabilityGroup&PageSize=1000","storeId":"2282","uuid":"1RvAqHil6eYAAAFVThYwMkn4","outletTypeId":"outletType_myymalat","phone":"020 711 2282","name":"Alko Alavus Tuuri","longitude":23.722653},{"OpenDay0":"0","OpenDay1":"9-18","address":"Vähtärintie 2","city":"ALAVUS","postalCode":"63300","latitude":62.587067,"link":"https://www.alko.fi/tuotteet&#63;SearchParameter=%26%40QueryTerm%3D*%26OnlineFlag%3D1%26productInStore%3D2274&productInStore=2274&SelectedFilter=AvailabilityGroup&PageSize=1000","storeId":"2274","uuid":"zSHAqHilNisAAAFVXegwMkn3","outletTypeId":"outletType_myymalat","phone":"020 711 2274","name":"Alko Alavus keskusta","longitude":23.614204},{"OpenDay0":"0","OpenDay1":"0","address":"Maakaupantie 1","city":"VÄÄKSY","postalCode":"17200","latitude":61.173231,"link":"https://www.alko.fi/tuotteet&#63;SearchParameter=%26%40QueryTerm%3D*%26OnlineFlag%3D1%26productInStore%3D2428&productInStore=2428&SelectedFilter=AvailabilityGroup&PageSize=1000","storeId":"2428","uuid":"5N_AqHilD7IAAAFVcDQwMkn5","outletTypeId":"outletType_myymalat","phone":"020 711 2428","name":"Alko Asikkala Vääksy","longitude":25.545711},{"OpenDay0":"0","OpenDay1":"9-18","address":"Savirannankuja 2","city":"AURA","postalCode":"21380","latitude":60.64721597,"link":"https://www.alko.fi/tuotteet&#63;SearchParameter=%26%40QueryTerm%3D*%26OnlineFlag%3D1%26productInStore%3D2223&productInStore=2223&SelectedFilter=AvailabilityGroup&PageSize=1000","storeId":"2223","uuid":"bC3AqHilg9IAAAFVMcgwMkn2","outletTypeId":"outletType_myymalat","phone":"020 711 2223","name":"Alko Aura","longitude":22.5913266},{"OpenDay0":"0","OpenDay1":"10-18","address":"Kustaavantie 1","city":"ENONTEKIÖ","postalCode":"99400","latitude":68.384754,"link":"https://www.alko.fi/tuotteet&#63;SearchParameter=%26%40QueryTerm%3D*%26OnlineFlag%3D1%26productInStore%3D2888&productInStore=2888&SelectedFilter=AvailabilityGroup&PageSize=1000","storeId":"2888","uuid":"Ms3AqHilmLYAAAFVjmQwMkn.","outletTypeId":"outletType_myymalat","phone":"020 711 2888","name":"Alko Enontekiö Hetta","longitude":23.639437},{"OpenDay0":"0","OpenDay1":"12-18","address":"Käsivarrentie 14205","city":"KILPISJÄRVI","postalCode":"99490","latitude":69.01642855,"link":"https://www.alko.fi/tuotteet&#63;SearchParameter=%26%40QueryTerm%3D*%26OnlineFlag%3D1%26productInStore%3D2890&productInStore=2890&SelectedFilter=AvailabilityGroup&PageSize=1000","storeId":"2890","uuid":"ETfAqG7UT2cAAAFWWUVTmLyg","outletTypeId":"outletType_myymalat","phone":"020 711 2890","name":"Alko Enontekiö Kilpisjärvi","longitude":20.8756005},{"OpenDay0":"0","OpenDay1":"9-20","address":"Siltakatu 11","city":"ESPOO","postalCode":"02770","latitude":60.203856,"link":"https://www.alko.fi/tuotteet&#63;SearchParameter=%26%40QueryTerm%3D*%26OnlineFlag%3D1%26productInStore%3D2154&productInStore=2154&SelectedFilter=AvailabilityGroup&PageSize=1000","storeId":"2154","uuid":"y_zAqHilm3gAAAFV7CEwMkn1","outletTypeId":"outletType_myymalat","phone":"020 692 771","name":"Alko Espoo Espoon keskus Entresse","longitude":24.658903},{"OpenDay0":"0","OpenDay1":"9-20","address":"Ulappakatu 2","city":"ESPOO","postalCode":"02320","latitude":60.151832,"link":"https://www.alko.fi/tuotteet&#63;SearchParameter=%26%40QueryTerm%3D*%26OnlineFlag%3D1%26productInStore%3D2156&productInStore=2156&SelectedFilter=AvailabilityGroup&PageSize=1000","storeId":"2156","uuid":"V2rAqHile.EAAAFVRS4wMkn1","outletTypeId":"outletType_myymalat","phone":"020 692 771","name":"Alko Espoo Espoonlahti Pikkulaiva","longitude":24.654746},{"OpenDay0":"0","OpenDay1":"9-20","address":"Räävelintie 2","city":"ESPOO","postalCode":"02780","latitude":60.18800302,"link":"https://www.alko.fi/tuotteet&#63;SearchParameter=%26%40QueryTerm%3D*%26OnlineFlag%3D1%26productInStore%3D2157&productInStore=2157&SelectedFilter=AvailabilityGroup&PageSize=1000","storeId":"2157","uuid":"f8TAqHilkr4AAAFVBDUwMkn1","outletTypeId":"outletType_myymalat","phone":"020 692 771","name":"Alko Espoo Kauklahti","longitude":24.58761646},{"OpenDay0":"0","OpenDay1":"9-20","address":"Leppävaarankatu 3-9","city":"ESPOO","postalCode":"02600","latitude":60.217952,"link":"https://www.alko.fi/tuotteet&#63;SearchParameter=%26%40QueryTerm%3D*%26OnlineFlag%3D1%26productInStore%3D2153&productInStore=2153&SelectedFilter=AvailabilityGroup&PageSize=1000","storeId":"2153","uuid":"5_TAqHilkg0AAAFVWhowMkn1","outletTypeId":"outletType_myymalat","phone":"020 692 771","name":"Alko Espoo Leppävaara Sello","longitude":24.809618},{"OpenDay0":"0","OpenDay1":"9-20","address":"Lähderanta 1","city":"ESPOO","postalCode":"02720","latitude":60.2408563,"link":"https://www.alko.fi/tuotteet&#63;SearchParameter=%26%40QueryTerm%3D*%26OnlineFlag%3D1%26productInStore%3D2149&productInStore=2149&SelectedFilter=AvailabilityGroup&PageSize=1000","storeId":"2149","uuid":"bQXAqHilCskAAAFVqAcwMkn1","outletTypeId":"outletType_myymalat","phone":"020 692 771","name":"Alko Espoo Lähderanta","longitude":24.73999438},{"OpenDay0":"0","OpenDay1":"9-20","address":"Sinikalliontie 1-3","city":"ESPOO","postalCode":"02630","latitude":60.20395,"link":"https://www.alko.fi/tuotteet&#63;SearchParameter=%26%40QueryTerm%3D*%26OnlineFlag%3D1%26productInStore%3D2160&productInStore=2160&SelectedFilter=AvailabilityGroup&PageSize=1000","storeId":"2160","uuid":"k7rAqHilGrMAAAFVPkswMkn1","outletTypeId":"outletType_myymalat","phone":"020 692 771","name":"Alko Espoo Mankkaa","longitude":24.766302},{"OpenDay0":"0","OpenDay1":"9-20","address":"Piispansilta 11","city":"ESPOO","postalCode":"02230","latitude":60.162314,"link":"https://www.alko.fi/tuotteet&#63;SearchParameter=%26%40QueryTerm%3D*%26OnlineFlag%3D1%26productInStore%3D2158&productInStore=2158&SelectedFilter=AvailabilityGroup&PageSize=1000","storeId":"2158","uuid":"9.PAqHilyCMAAAFV0DowMkn1","outletTypeId":"outletType_myymalat","phone":"020 692 771","name":"Alko Espoo Matinkylä Iso Omena","longitude":24.738737},{"OpenDay0":"0","OpenDay1":"9-20","address":"Merituulentie 36","city":"ESPOO","postalCode":"02200","latitude":60.169771,"link":"https://www.alko.fi/tuotteet&#63;SearchParameter=%26%40QueryTerm%3D*%26OnlineFlag%3D1%26productInStore%3D2155&productInStore=2155&SelectedFilter=AvailabilityGroup&PageSize=1000","storeId":"2155","uuid":"t.vAqHilvgwAAAFV5yYwMkn1","outletTypeId":"outletType_myymalat","phone":"020 692 771","name":"Alko Espoo Niittykumpu","longitude":24.76066},{"OpenDay0":"0","OpenDay1":"9-20","address":"Komeetankatu 2","city":"ESPOO","postalCode":"02210","latitude":60.167325,"link":"https://www.alko.fi/tuotteet&#63;SearchParameter=%26%40QueryTerm%3D*%26OnlineFlag%3D1%26productInStore%3D2150&productInStore=2150&SelectedFilter=AvailabilityGroup&PageSize=1000","storeId":"2150","uuid":"nAXAqHilE1sAAAFVOA4wMkn1","outletTypeId":"outletType_myymalat","phone":"020 692 771","name":"Alko Espoo Olari Prisma","longitude":24.735635},{"OpenDay0":"0","OpenDay1":"9-20","address":"Tapionaukio 4","city":"ESPOO","postalCode":"02100","latitude":60.17639111,"link":"https://www.alko.fi/tuotteet&#63;SearchParameter=%26%40QueryTerm%3D*%26OnlineFlag%3D1%26productInStore%3D2152&productInStore=2152&SelectedFilter=AvailabilityGroup&PageSize=1000","storeId":"2152","uuid":"uazAqHil3roAAAFVkxMwMkn1","outletTypeId":"outletType_myymalat","phone":"020 692 771","name":"Alko Espoo Tapiola Ainoa","longitude":24.80858154},{"OpenDay0":"0","OpenDay1":"9-18","address":"Satakunnankatu 30","city":"EURA","postalCode":"27510","latitude":61.129924,"link":"https://www.alko.fi/tuotteet&#63;SearchParameter=%26%40QueryTerm%3D*%26OnlineFlag%3D1%26productInStore%3D2266&productInStore=2266&SelectedFilter=AvailabilityGroup&PageSize=1000","storeId":"2266","uuid":"F57AqHilE9MAAAFV47AwMkn3","outletTypeId":"outletType_myymalat","phone":"020 711 2266","name":"Alko Eura","longitude":22.14335},{"OpenDay0":"0","OpenDay1":"9-18","address":"Riikontie 2","city":"EURAJOKI","postalCode":"27100","latitude":61.202553,"link":"https://www.alko.fi/tuotteet&#63;SearchParameter=%26%40QueryTerm%3D*%26OnlineFlag%3D1%26productInStore%3D2264&productInStore=2264&SelectedFilter=AvailabilityGroup&PageSize=1000","storeId":"2264","uuid":"7gPAqHilV40AAAFV8Z4wMkn3","outletTypeId":"outletType_myymalat","phone":"020 711 2264","name":"Alko Eurajoki","longitude":21.72763},{"OpenDay0":"0","OpenDay1":"9-20","address":"Yhtiönkatu","city":"FORSSA","postalCode":"30100","latitude":60.808372,"link":"https://www.alko.fi/tuotteet&#63;SearchParameter=%26%40QueryTerm%3D*%26OnlineFlag%3D1%26productInStore%3D2406&productInStore=2406&SelectedFilter=AvailabilityGroup&PageSize=1000","storeId":"2406","uuid":"UJrAqHilqz0AAAFV940wMkn4","outletTypeId":"outletType_myymalat","phone":"020 711 2406","name":"Alko Forssa Kutomo","longitude":23.630285},{"OpenDay0":"0","OpenDay1":"9-20","address":"Tapulikuja 6","city":"FORSSA","postalCode":"30100","latitude":60.81186,"link":"https://www.alko.fi/tuotteet&#63;SearchParameter=%26%40QueryTerm%3D*%26OnlineFlag%3D1%26productInStore%3D2405&productInStore=2405&SelectedFilter=AvailabilityGroup&PageSize=1000","storeId":"2405","uuid":"PrrAqHilp7EAAAFVDYcwMkn4","outletTypeId":"outletType_myymalat","phone":"020 711 2405","name":"Alko Forssa Prismakeskus","longitude":23.6372},{"OpenDay0":"0","OpenDay1":"9-18","address":"Kirkkokatu 1","city":"HAAPAJÄRVI","postalCode":"85800","latitude":63.748838,"link":"https://www.alko.fi/tuotteet&#63;SearchParameter=%26%40QueryTerm%3D*%26OnlineFlag%3D1%26productInStore%3D2807&productInStore=2807&SelectedFilter=AvailabilityGroup&PageSize=1000","storeId":"2807","uuid":"9.LAqHilqNUAAAFVN.gwMkn8","outletTypeId":"outletType_myymalat","phone":"020 711 2807","name":"Alko Haapajärvi","longitude":25.318171},{"OpenDay0":"0","OpenDay1":"9-18","address":"Vanhatie 48","city":"HAAPAVESI","postalCode":"86600","latitude":64.1377333,"link":"https://www.alko.fi/tuotteet&#63;SearchParameter=%26%40QueryTerm%3D*%26OnlineFlag%3D1%26productInStore%3D2811&productInStore=2811&SelectedFilter=AvailabilityGroup&PageSize=1000","storeId":"2811","uuid":"U4PAqHildWwAAAFVZwUwMkn9","outletTypeId":"outletType_myymalat","phone":"020 711 2811","name":"Alko Haapavesi","longitude":25.3642155},{"OpenDay0":"0","OpenDay1":"9-20","address":"Isoympyränkatu 15","city":"HAMINA","postalCode":"49400","latitude":60.569083,"link":"https://www.alko.fi/tuotteet&#63;SearchParameter=%26%40QueryTerm%3D*%26OnlineFlag%3D1%26productInStore%3D2772&productInStore=2772&SelectedFilter=AvailabilityGroup&PageSize=1000","storeId":"2772","uuid":"NGjAqHil4pkAAAFVZVEwMkn8","outletTypeId":"outletType_myymalat","phone":"020 711 2772","name":"Alko Hamina","longitude":27.194155},{"OpenDay0":"0","OpenDay1":"11-17","address":"Keskustie 35","city":"HANKASALMI","postalCode":"41520","latitude":62.389205,"link":"https://www.alko.fi/tuotteet&#63;SearchParameter=%26%40QueryTerm%3D*%26OnlineFlag%3D1%26productInStore%3D2498&productInStore=2498&SelectedFilter=AvailabilityGroup&PageSize=1000","storeId":"2498","uuid":"1cbAqHil5ngAAAFVS7YwMkn6","outletTypeId":"outletType_myymalat","phone":"020 711 2498","name":"Alko Hankasalmi","longitude":26.435999},{"OpenDay0":"0","OpenDay1":"10-18","address":"Revellinkatu 2","city":"HANKO","postalCode":"10900","latitude":59.8292367,"link":"https://www.alko.fi/tuotteet&#63;SearchParameter=%26%40QueryTerm%3D*%26OnlineFlag%3D1%26productInStore%3D2171&productInStore=2171&SelectedFilter=AvailabilityGroup&PageSize=1000","storeId":"2171","uuid":"HuLAqHilgvAAAAFVNJAwMkn1","outletTypeId":"outletType_myymalat","phone":"020 711 2171","name":"Alko Hanko","longitude":22.96500399},{"OpenDay0":"0","OpenDay1":"9-18","address":"Teollisuuskatu 4","city":"HARJAVALTA","postalCode":"29200","latitude":61.30982606,"link":"https://www.alko.fi/tuotteet&#63;SearchParameter=%26%40QueryTerm%3D*%26OnlineFlag%3D1%26productInStore%3D2262&productInStore=2262&SelectedFilter=AvailabilityGroup&PageSize=1000","storeId":"2262","uuid":"O4nAqHil.dMAAAFV5pAwMkn3","outletTypeId":"outletType_myymalat","phone":"020 711 2262","name":"Alko Harjavalta","longitude":22.13731835},{"OpenDay0":"0","OpenDay1":"12-18","address":"Keskustie 50","city":"HARTOLA","postalCode":"19600","latitude":61.579146,"link":"https://www.alko.fi/tuotteet&#63;SearchParameter=%26%40QueryTerm%3D*%26OnlineFlag%3D1%26productInStore%3D2418&productInStore=2418&SelectedFilter=AvailabilityGroup&PageSize=1000","storeId":"2418","uuid":"Hx3AqHil_BAAAAFVYNswMkn4","outletTypeId":"outletType_myymalat","phone":"020 711 2418","name":"Alko Hartola","longitude":26.020975},{"OpenDay0":"0","OpenDay1":"12:30-18","address":"Tammitie 5","city":"OITTI","postalCode":"12100","latitude":60.788515,"link":"https://www.alko.fi/tuotteet&#63;SearchParameter=%26%40QueryTerm%3D*%26OnlineFlag%3D1%26productInStore%3D2413&productInStore=2413&SelectedFilter=AvailabilityGroup&PageSize=1000","storeId":"2413","uuid":"qDjAqHilGo4AAAFVgbUwMkn4","outletTypeId":"outletType_myymalat","phone":"020 711 2413","name":"Alko Hausjärvi Oitti","longitude":25.026843},{"OpenDay0":"0","OpenDay1":"9-20","address":"Hevossaarentie 1","city":"HEINOLA","postalCode":"18100","latitude":61.192999,"link":"https://www.alko.fi/tuotteet&#63;SearchParameter=%26%40QueryTerm%3D*%26OnlineFlag%3D1%26productInStore%3D2414&productInStore=2414&SelectedFilter=AvailabilityGroup&PageSize=1000","storeId":"2414","uuid":"fYHAqHilVCYAAAFVQrwwMkn4","outletTypeId":"outletType_myymalat","phone":"020 711 2414","name":"Alko Heinola Citymarket","longitude":25.998414},{"OpenDay0":"0","OpenDay1":"9-20","address":"Savontie 5","city":"HEINOLA","postalCode":"18100","latitude":61.20293701,"link":"https://www.alko.fi/tuotteet&#63;SearchParameter=%26%40QueryTerm%3D*%26OnlineFlag%3D1%26productInStore%3D2411&productInStore=2411&SelectedFilter=AvailabilityGroup&PageSize=1000","storeId":"2411","uuid":"yv7AqHilxT4AAAFVKq0wMkn4","outletTypeId":"outletType_myymalat","phone":"020 711 2411","name":"Alko Heinola keskusta","longitude":26.03053771},{"OpenDay0":"0","OpenDay1":"11-17","address":"Keskuksenkuja 1","city":"HEINÄVESI","postalCode":"79700","latitude":62.426346,"link":"https://www.alko.fi/tuotteet&#63;SearchParameter=%26%40QueryTerm%3D*%26OnlineFlag%3D1%26productInStore%3D2727&productInStore=2727&SelectedFilter=AvailabilityGroup&PageSize=1000","storeId":"2727","uuid":"UJbAqHil47sAAAFVw10wMkn7","outletTypeId":"outletType_myymalat","phone":"020 711 2727","name":"Alko Heinävesi","longitude":28.629456},{"OpenDay0":"0","OpenDay1":"9-20","address":"Hämeentie 109-111 B 9","city":"HELSINKI","postalCode":"00560","latitude":60.203124,"link":"https://www.alko.fi/tuotteet&#63;SearchParameter=%26%40QueryTerm%3D*%26OnlineFlag%3D1%26productInStore%3D2116&productInStore=2116&SelectedFilter=AvailabilityGroup&PageSize=1000","storeId":"2116","uuid":"RZLAqHilxlcAAAFV0VUwMkn0","outletTypeId":"outletType_myymalat","phone":"020 692 771","name":"Alko Helsinki Arabianranta Arabia","longitude":24.967176},{"OpenDay0":"0","OpenDay1":"9-20","address":"Hietalahdenranta 5","city":"HELSINKI","postalCode":"00120","latitude":60.161259,"link":"https://www.alko.fi/tuotteet&#63;SearchParameter=%26%40QueryTerm%3D*%26OnlineFlag%3D1%26productInStore%3D2104&productInStore=2104&SelectedFilter=AvailabilityGroup&PageSize=1000","storeId":"2104","uuid":"gbXAqHilIF4AAAFVrx4wMkn0","outletTypeId":"outletType_myymalat","phone":"020 692 771","name":"Alko Helsinki Bulevardi","longitude":24.930095},{"OpenDay0":"0","OpenDay1":"9-20","address":"Siltasaarenkatu 18-20","city":"HELSINKI","postalCode":"00530","latitude":60.180342,"link":"https://www.alko.fi/tuotteet&#63;SearchParameter=%26%40QueryTerm%3D*%26OnlineFlag%3D1%26productInStore%3D2120&productInStore=2120&SelectedFilter=AvailabilityGroup&PageSize=1000","storeId":"2120","uuid":"p2jAqHil8ioAAAFVnmwwMkn0","outletTypeId":"outletType_myymalat","phone":"020 692 771","name":"Alko Helsinki Hakaniemi Ympyrätalo","longitude":24.948811},{"OpenDay0":"0","OpenDay1":"9-20","address":"Insinöörinkatu 2","city":"HELSINKI","postalCode":"00880","latitude":60.194368,"link":"https://www.alko.fi/tuotteet&#63;SearchParameter=%26%40QueryTerm%3D*%26OnlineFlag%3D1%26productInStore%3D2131&productInStore=2131&SelectedFilter=AvailabilityGroup&PageSize=1000","storeId":"2131","uuid":"V_3AqHil9LgAAAFVqa0wMkn0","outletTypeId":"outletType_myymalat","phone":"020 692 771","name":"Alko Helsinki Herttoniemi Megahertsi","longitude":25.033626},{"OpenDay0":"0","OpenDay1":"9-20","address":"Ratapihantie 3","city":"HELSINKI","postalCode":"00520","latitude":60.197313,"link":"https://www.alko.fi/tuotteet&#63;SearchParameter=%26%40QueryTerm%3D*%26OnlineFlag%3D1%26productInStore%3D2111&productInStore=2111&SelectedFilter=AvailabilityGroup&PageSize=1000","storeId":"2111","uuid":"1.LAqHiliMgAAAFVXj0wMkn0","outletTypeId":"outletType_myymalat","phone":"020 692 771","name":"Alko Helsinki Itä-Pasila","longitude":24.935651},{"OpenDay0":"0","OpenDay1":"9-20","address":"Kauppakartanonkatu 3","city":"HELSINKI","postalCode":"00930","latitude":60.209894,"link":"https://www.alko.fi/tuotteet&#63;SearchParameter=%26%40QueryTerm%3D*%26OnlineFlag%3D1%26productInStore%3D2137&productInStore=2137&SelectedFilter=AvailabilityGroup&PageSize=1000","storeId":"2137","uuid":"IUPAqHilL3EAAAFV5tcwMkn0","outletTypeId":"outletType_myymalat","phone":"020 692 771","name":"Alko Helsinki Itäkeskus Easton","longitude":25.085375},{"OpenDay0":"0","OpenDay1":"9-20","address":"Itäkatu 1","city":"HELSINKI","postalCode":"00930","latitude":60.21309283,"link":"https://www.alko.fi/tuotteet&#63;SearchParameter=%26%40QueryTerm%3D*%26OnlineFlag%3D1%26productInStore%3D2133&productInStore=2133&SelectedFilter=AvailabilityGroup&PageSize=1000","storeId":"2133","uuid":"eKnAqHiln2gAAAFVZLkwMkn0","outletTypeId":"outletType_myymalat","phone":"020 692 771","name":"Alko Helsinki Itäkeskus Itis Stockmann","longitude":25.08470388},{"OpenDay0":"0","OpenDay1":"9-20","address":"Vanhanlinnantie 1","city":"HELSINKI","postalCode":"00900","latitude":60.213933,"link":"https://www.alko.fi/tuotteet&#63;SearchParameter=%26%40QueryTerm%3D*%26OnlineFlag%3D1%26productInStore%3D2134&productInStore=2134&SelectedFilter=AvailabilityGroup&PageSize=1000","storeId":"2134","uuid":"6UjAqHili6YAAAFVfsIwMkn0","outletTypeId":"outletType_myymalat","phone":"020 692 771","name":"Alko Helsinki Itäkeskus Prisma","longitude":25.087828},{"OpenDay0":"0","OpenDay1":"9-20","address":"Vanha Talvitie 12","city":"HELSINKI","postalCode":"00580","latitude":60.19204116,"link":"https://www.alko.fi/tuotteet&#63;SearchParameter=%26%40QueryTerm%3D*%26OnlineFlag%3D1%26productInStore%3D2138&productInStore=2138&SelectedFilter=AvailabilityGroup&PageSize=1000","storeId":"2138","uuid":"h_LAqHiluKwAAAFVut4wMkn0","outletTypeId":"outletType_myymalat","phone":"020 692 771","name":"Alko Helsinki Kalasatama","longitude":24.9771417},{"OpenDay0":"0","OpenDay1":"9-20","address":"Helsinginkatu 15","city":"HELSINKI","postalCode":"00500","latitude":60.187262,"link":"https://www.alko.fi/tuotteet&#63;SearchParameter=%26%40QueryTerm%3D*%26OnlineFlag%3D1%26productInStore%3D2107&productInStore=2107&SelectedFilter=AvailabilityGroup&PageSize=1000","storeId":"2107","uuid":"M2bAqHilqJcAAAFVQDAwMkn0","outletTypeId":"outletType_myymalat","phone":"020 692 771","name":"Alko Helsinki Kallio","longitude":24.955068},{"OpenDay0":"0","OpenDay1":"9-20","address":"Kantelettarentie 1","city":"HELSINKI","postalCode":"00420","latitude":60.23694,"link":"https://www.alko.fi/tuotteet&#63;SearchParameter=%26%40QueryTerm%3D*%26OnlineFlag%3D1%26productInStore%3D2132&productInStore=2132&SelectedFilter=AvailabilityGroup&PageSize=1000","storeId":"2132","uuid":"qHnAqHiltJYAAAFVPbMwMkn0","outletTypeId":"outletType_myymalat","phone":"020 692 771","name":"Alko Helsinki Kannelmäki Kaari","longitude":24.888702},{"OpenDay0":"0","OpenDay1":"9-20","address":"Fabianinkatu 9-11","city":"HELSINKI","postalCode":"00130","latitude":60.164371,"link":"https://www.alko.fi/tuotteet&#63;SearchParameter=%26%40QueryTerm%3D*%26OnlineFlag%3D1%26productInStore%3D2103&productInStore=2103&SelectedFilter=AvailabilityGroup&PageSize=1000","storeId":"2103","uuid":"NJfAqHilBhwAAAFVvhcwMkn0","outletTypeId":"outletType_myymalat","phone":"020 692 771","name":"Alko Helsinki Kasarmitori","longitude":24.95006},{"OpenDay0":"0","OpenDay1":"9-20","address":"Hankasuontie 2","city":"HELSINKI","postalCode":"00390","latitude":60.24526913,"link":"https://www.alko.fi/tuotteet&#63;SearchParameter=%26%40QueryTerm%3D*%26OnlineFlag%3D1%26productInStore%3D2142&productInStore=2142&SelectedFilter=AvailabilityGroup&PageSize=1000","storeId":"2142","uuid":"2o_AqHilrQ8AAAFVQP8wMkn0","outletTypeId":"outletType_myymalat","phone":"020 692 771","name":"Alko Helsinki Konalan Portti","longitude":24.84765239},{"OpenDay0":"0","OpenDay1":"9-20","address":"Ostostie 4","city":"HELSINKI","postalCode":"00940","latitude":60.238283,"link":"https://www.alko.fi/tuotteet&#63;SearchParameter=%26%40QueryTerm%3D*%26OnlineFlag%3D1%26productInStore%3D2135&productInStore=2135&SelectedFilter=AvailabilityGroup&PageSize=1000","storeId":"2135","uuid":"qK7AqHilN5QAAAFVZ8swMkn0","outletTypeId":"outletType_myymalat","phone":"020 692 771","name":"Alko Helsinki Kontula","longitude":25.083609},{"OpenDay0":"0","OpenDay1":"10-18","address":"Maurinkatu 8-12","city":"HELSINKI","postalCode":"00170","latitude":60.174411,"link":"https://www.alko.fi/tuotteet&#63;SearchParameter=%26%40QueryTerm%3D*%26OnlineFlag%3D1%26productInStore%3D2117&productInStore=2117&SelectedFilter=AvailabilityGroup&PageSize=1000","storeId":"2117","uuid":"8JPAqHilt6YAAAFVZ1swMkn0","outletTypeId":"outletType_myymalat","phone":"020 692 771","name":"Alko Helsinki Kruununhaka","longitude":24.959544},{"OpenDay0":"0","OpenDay1":"9-20","address":"Panuntie 11","city":"HELSINKI","postalCode":"00620","latitude":60.221808,"link":"https://www.alko.fi/tuotteet&#63;SearchParameter=%26%40QueryTerm%3D*%26OnlineFlag%3D1%26productInStore%3D2110&productInStore=2110&SelectedFilter=AvailabilityGroup&PageSize=1000","storeId":"2110","uuid":"uPDAqHilu4kAAAFVMTYwMkn0","outletTypeId":"outletType_myymalat","phone":"020 692 771","name":"Alko Helsinki Käpylä","longitude":24.947375},{"OpenDay0":"0","OpenDay1":"9-20","address":"Lauttasaarentie 28","city":"HELSINKI","postalCode":"00200","latitude":60.160356,"link":"https://www.alko.fi/tuotteet&#63;SearchParameter=%26%40QueryTerm%3D*%26OnlineFlag%3D1%26productInStore%3D2119&productInStore=2119&SelectedFilter=AvailabilityGroup&PageSize=1000","storeId":"2119","uuid":"N2bAqHilhUYAAAFVBmcwMkn0","outletTypeId":"outletType_myymalat","phone":"020 692 771","name":"Alko Helsinki Lauttasaari","longitude":24.881551},{"OpenDay0":"0","OpenDay1":"9-20","address":"Ala-Malmin tori 5","city":"HELSINKI","postalCode":"00700","latitude":60.251175,"link":"https://www.alko.fi/tuotteet&#63;SearchParameter=%26%40QueryTerm%3D*%26OnlineFlag%3D1%26productInStore%3D2130&productInStore=2130&SelectedFilter=AvailabilityGroup&PageSize=1000","storeId":"2130","uuid":"bpDAqHilfOgAAAFVVaYwMkn0","outletTypeId":"outletType_myymalat","phone":"020 692 771","name":"Alko Helsinki Malmi Nova","longitude":25.01398},{"OpenDay0":"0","OpenDay1":"10-20","address":"Mannerheimintie 94","city":"HELSINKI","postalCode":"00250","latitude":60.18767642,"link":"https://www.alko.fi/tuotteet&#63;SearchParameter=%26%40QueryTerm%3D*%26OnlineFlag%3D1%26productInStore%3D2139&productInStore=2139&SelectedFilter=AvailabilityGroup&PageSize=1000","storeId":"2139","uuid":"xQDAqHiliMkAAAFV5.QwMkn0","outletTypeId":"outletType_myymalat","phone":"020 692 771","name":"Alko Helsinki Mannerheimintie","longitude":24.91857562},{"OpenDay0":"0","OpenDay1":"9-20","address":"Rukatunturintie 2","city":"HELSINKI","postalCode":"00970","latitude":60.2316465,"link":"https://www.alko.fi/tuotteet&#63;SearchParameter=%26%40QueryTerm%3D*%26OnlineFlag%3D1%26productInStore%3D2140&productInStore=2140&SelectedFilter=AvailabilityGroup&PageSize=1000","storeId":"2140","uuid":"eIjAqHilc2MAAAFVeu0wMkn0","outletTypeId":"outletType_myymalat","phone":"020 692 771","name":"Alko Helsinki Mellunmäki","longitude":25.12797562},{"OpenDay0":"0","OpenDay1":"9-20","address":"Raumantie 1","city":"HELSINKI","postalCode":"00350","latitude":60.205564,"link":"https://www.alko.fi/tuotteet&#63;SearchParameter=%26%40QueryTerm%3D*%26OnlineFlag%3D1%26productInStore%3D2118&productInStore=2118&SelectedFilter=AvailabilityGroup&PageSize=1000","storeId":"2118","uuid":"11vAqHilfpoAAAFVN2EwMkn0","outletTypeId":"outletType_myymalat","phone":"020 692 771","name":"Alko Helsinki Munkkivuori","longitude":24.876523},{"OpenDay0":"0","OpenDay1":"9-20","address":"Pakilantie 46-48","city":"HELSINKI","postalCode":"00660","latitude":60.236792,"link":"https://www.alko.fi/tuotteet&#63;SearchParameter=%26%40QueryTerm%3D*%26OnlineFlag%3D1%26productInStore%3D2121&productInStore=2121&SelectedFilter=AvailabilityGroup&PageSize=1000","storeId":"2121","uuid":"fpnAqHiluiUAAAFVKnIwMkn0","outletTypeId":"outletType_myymalat","phone":"020 692 771","name":"Alko Helsinki Pakila","longitude":24.928815},{"OpenDay0":"0","OpenDay1":"9-20","address":"Mannerheimintie 160","city":"HELSINKI","postalCode":"00300","latitude":60.19782812,"link":"https://www.alko.fi/tuotteet&#63;SearchParameter=%26%40QueryTerm%3D*%26OnlineFlag%3D1%26productInStore%3D2141&productInStore=2141&SelectedFilter=AvailabilityGroup&PageSize=1000","storeId":"2141","uuid":"eLTAqHiltd8AAAFVsfUwMkn0","outletTypeId":"outletType_myymalat","phone":"020 692 771","name":"Alko Helsinki Pikku Huopalahti","longitude":24.90104507},{"OpenDay0":"0","OpenDay1":"9-20","address":"Takomotie 33","city":"HELSINKI","postalCode":"00380","latitude":60.217522,"link":"https://www.alko.fi/tuotteet&#63;SearchParameter=%26%40QueryTerm%3D*%26OnlineFlag%3D1%26productInStore%3D2123&productInStore=2123&SelectedFilter=AvailabilityGroup&PageSize=1000","storeId":"2123","uuid":".NrAqHilE3QAAAFVmIAwMkn0","outletTypeId":"outletType_myymalat","phone":"020 692 771","name":"Alko Helsinki Pitäjänmäki","longitude":24.86974},{"OpenDay0":"0","OpenDay1":"9-20","address":"Itämerenkatu 21","city":"HELSINKI","postalCode":"00180","latitude":60.163317,"link":"https://www.alko.fi/tuotteet&#63;SearchParameter=%26%40QueryTerm%3D*%26OnlineFlag%3D1%26productInStore%3D2115&productInStore=2115&SelectedFilter=AvailabilityGroup&PageSize=1000","storeId":"2115","uuid":"IF3AqHilB6QAAAFVH0wwMkn0","outletTypeId":"outletType_myymalat","phone":"020 692 771","name":"Alko Helsinki Ruoholahti","longitude":24.91022},{"OpenDay0":"0","OpenDay1":"9-20","address":"Pohjoinen Hesperiankatu 33","city":"HELSINKI","postalCode":"00260","latitude":60.17662,"link":"https://www.alko.fi/tuotteet&#63;SearchParameter=%26%40QueryTerm%3D*%26OnlineFlag%3D1%26productInStore%3D2143&productInStore=2143&SelectedFilter=AvailabilityGroup&PageSize=1000","storeId":"2143","uuid":"eXjAqHj.9ewAAAFYcQAmvPXp","outletTypeId":"outletType_myymalat","phone":"020 711 2143","name":"Alko Helsinki Taivallahti","longitude":24.91668},{"OpenDay0":"0","OpenDay1":"9-20","address":"Sandelsinkatu 4","city":"HELSINKI","postalCode":"00260","latitude":60.17867,"link":"https://www.alko.fi/tuotteet&#63;SearchParameter=%26%40QueryTerm%3D*%26OnlineFlag%3D1%26productInStore%3D2122&productInStore=2122&SelectedFilter=AvailabilityGroup&PageSize=1000","storeId":"2122","uuid":"AYbAqHilLDEAAAFVo3kwMkn0","outletTypeId":"outletType_myymalat","phone":"020 692 771","name":"Alko Helsinki Töölöntori","longitude":24.923898},{"OpenDay0":"0","OpenDay1":"9-20","address":"Vuorimiehenkatu 33","city":"HELSINKI","postalCode":"00140","latitude":60.159321,"link":"https://www.alko.fi/tuotteet&#63;SearchParameter=%26%40QueryTerm%3D*%26OnlineFlag%3D1%26productInStore%3D2106&productInStore=2106&SelectedFilter=AvailabilityGroup&PageSize=1000","storeId":"2106","uuid":"cDvAqHilkeEAAAFVESswMkn0","outletTypeId":"outletType_myymalat","phone":"020 692 771","name":"Alko Helsinki Ullanlinna","longitude":24.943421},{"OpenDay0":"0","OpenDay1":"9-20","address":"Viikintori 3","city":"HELSINKI","postalCode":"00790","latitude":60.227485,"link":"https://www.alko.fi/tuotteet&#63;SearchParameter=%26%40QueryTerm%3D*%26OnlineFlag%3D1%26productInStore%3D2126&productInStore=2126&SelectedFilter=AvailabilityGroup&PageSize=1000","storeId":"2126","uuid":"jHbAqHilQIMAAAFVQo4wMkn0","outletTypeId":"outletType_myymalat","phone":"020 692 771","name":"Alko Helsinki Viikki Prisma","longitude":25.009999},{"OpenDay0":"0","OpenDay1":"9-20","address":"Vuotie 45","city":"HELSINKI","postalCode":"00980","latitude":60.207303,"link":"https://www.alko.fi/tuotteet&#63;SearchParameter=%26%40QueryTerm%3D*%26OnlineFlag%3D1%26productInStore%3D2136&productInStore=2136&SelectedFilter=AvailabilityGroup&PageSize=1000","storeId":"2136","uuid":"8TjAqHilq44AAAFVqtEwMkn0","outletTypeId":"outletType_myymalat","phone":"020 692 771","name":"Alko Helsinki Vuosaari Columbus","longitude":25.144982},{"OpenDay0":"0","OpenDay1":"9-18","address":"Eteläranta","city":"HELSINKI","postalCode":"00130","latitude":60.165893,"link":"https://www.alko.fi/tuotteet&#63;SearchParameter=%26%40QueryTerm%3D*%26OnlineFlag%3D1%26productInStore%3D2113&productInStore=2113&SelectedFilter=AvailabilityGroup&PageSize=1000","storeId":"2113","uuid":"CI7AqHilaZ4AAAFVV0QwMkn0","outletTypeId":"outletType_myymalat","phone":"020 692 771","name":"Alko Helsinki Wanha Kauppahalli","longitude":24.952721},{"OpenDay0":"0","OpenDay1":"9-20","address":"Salomonkatu 1","city":"HELSINKI","postalCode":"00100","latitude":60.170814,"link":"https://www.alko.fi/tuotteet&#63;SearchParameter=%26%40QueryTerm%3D*%26OnlineFlag%3D1%26productInStore%3D2102&productInStore=2102&SelectedFilter=AvailabilityGroup&PageSize=1000","storeId":"2102","uuid":"QEjAqHilkKEAAAFVdhAwMkn0","outletTypeId":"outletType_myymalat","phone":"020 692 771","name":"Alko Helsinki keskusta Arkadia","longitude":24.934792},{"OpenDay0":"0","OpenDay1":"9-20","address":"Eteläesplanadi 20 B","city":"HELSINKI","postalCode":"00130","latitude":60.16701443,"link":"https://www.alko.fi/tuotteet&#63;SearchParameter=%26%40QueryTerm%3D*%26OnlineFlag%3D1%26productInStore%3D2129&productInStore=2129&SelectedFilter=AvailabilityGroup&PageSize=1000","storeId":"2129","uuid":"FHbAqHil5rIAAAFVpp4wMkn0","outletTypeId":"outletType_myymalat","phone":"020 692 771","name":"Alko Helsinki keskusta Eteläesplanadi","longitude":24.94540663},{"OpenDay0":"0","OpenDay1":"9-20","address":"Mannerheimintie 20","city":"HELSINKI","postalCode":"00100","latitude":60.169013,"link":"https://www.alko.fi/tuotteet&#63;SearchParameter=%26%40QueryTerm%3D*%26OnlineFlag%3D1%26productInStore%3D2105&productInStore=2105&SelectedFilter=AvailabilityGroup&PageSize=1000","storeId":"2105","uuid":"Dy3AqHillFcAAAFVRyUwMkn0","outletTypeId":"outletType_myymalat","phone":"020 692 771","name":"Alko Helsinki keskusta Forum","longitude":24.937932},{"OpenDay0":"0","OpenDay1":"9-20","address":"Mannerheimintie 9","city":"HELSINKI","postalCode":"00100","latitude":60.17037,"link":"https://www.alko.fi/tuotteet&#63;SearchParameter=%26%40QueryTerm%3D*%26OnlineFlag%3D1%26productInStore%3D2124&productInStore=2124&SelectedFilter=AvailabilityGroup&PageSize=1000","storeId":"2124","uuid":"tnXAqHilvXEAAAFVU4cwMkn0","outletTypeId":"outletType_myymalat","phone":"020 692 771","name":"Alko Helsinki keskusta Sokos","longitude":24.938604},{"OpenDay0":"0","OpenDay1":"9-20","address":"Aleksanterinkatu 52.b","city":"HELSINKI","postalCode":"00100","latitude":60.168312,"link":"https://www.alko.fi/tuotteet&#63;SearchParameter=%26%40QueryTerm%3D*%26OnlineFlag%3D1%26productInStore%3D2128&productInStore=2128&SelectedFilter=AvailabilityGroup&PageSize=1000","storeId":"2128","uuid":"RRHAqHili.YAAAFVbZQwMkn0","outletTypeId":"outletType_myymalat","phone":"020 692 771","name":"Alko Helsinki keskusta Stockmann","longitude":24.942498},{"OpenDay0":"0","OpenDay1":"9-20","address":"Kansankatu 8","city":"HOLLOLA","postalCode":"15870","latitude":60.989939,"link":"https://www.alko.fi/tuotteet&#63;SearchParameter=%26%40QueryTerm%3D*%26OnlineFlag%3D1%26productInStore%3D2425&productInStore=2425&SelectedFilter=AvailabilityGroup&PageSize=1000","storeId":"2425","uuid":"0nrAqHilaiMAAAFVWB0wMkn5","outletTypeId":"outletType_myymalat","phone":"020 711 2425","name":"Alko Hollola Salpakangas","longitude":25.516161},{"OpenDay0":"0","OpenDay1":"9-18","address":"Särmänkatu 1","city":"HUITTINEN","postalCode":"32700","latitude":61.178343,"link":"https://www.alko.fi/tuotteet&#63;SearchParameter=%26%40QueryTerm%3D*%26OnlineFlag%3D1%26productInStore%3D2268&productInStore=2268&SelectedFilter=AvailabilityGroup&PageSize=1000","storeId":"2268","uuid":"earAqHilpl4AAAFVu70wMkn3","outletTypeId":"outletType_myymalat","phone":"020 711 2268","name":"Alko Huittinen","longitude":22.697894},{"OpenDay0":"0","OpenDay1":"10-18","address":"Hyryntie 45","city":"HYRYNSALMI","postalCode":"89400","latitude":64.674993,"link":"https://www.alko.fi/tuotteet&#63;SearchParameter=%26%40QueryTerm%3D*%26OnlineFlag%3D1%26productInStore%3D2824&productInStore=2824&SelectedFilter=AvailabilityGroup&PageSize=1000","storeId":"2824","uuid":"_kvAqHilQqIAAAFVuTwwMkn9","outletTypeId":"outletType_myymalat","phone":"020 711 2824","name":"Alko Hyrynsalmi","longitude":28.505947},{"OpenDay0":"0","OpenDay1":"9-20","address":"Hämeenkatu 9","city":"HYVINKÄÄ","postalCode":"05800","latitude":60.632648,"link":"https://www.alko.fi/tuotteet&#63;SearchParameter=%26%40QueryTerm%3D*%26OnlineFlag%3D1%26productInStore%3D2186&productInStore=2186&SelectedFilter=AvailabilityGroup&PageSize=1000","storeId":"2186","uuid":"UU7AqHilC_wAAAFVpQIwMkn2","outletTypeId":"outletType_myymalat","phone":"020 711 2186","name":"Alko Hyvinkää Willa","longitude":24.86303},{"OpenDay0":"0","OpenDay1":"9-20","address":"Härkikuja 4","city":"HÄMEENKYRÖ","postalCode":"39100","latitude":61.639021,"link":"https://www.alko.fi/tuotteet&#63;SearchParameter=%26%40QueryTerm%3D*%26OnlineFlag%3D1%26productInStore%3D2475&productInStore=2475&SelectedFilter=AvailabilityGroup&PageSize=1000","storeId":"2475","uuid":"NjnAqHil6N8AAAFVTf4wMkn5","outletTypeId":"outletType_myymalat","phone":"020 711 2475","name":"Alko Hämeenkyrö","longitude":23.196255},{"OpenDay0":"0","OpenDay1":"9-20","address":"Kaivokatu 7","city":"HÄMEENLINNA","postalCode":"13100","latitude":60.99682277,"link":"https://www.alko.fi/tuotteet&#63;SearchParameter=%26%40QueryTerm%3D*%26OnlineFlag%3D1%26productInStore%3D2402&productInStore=2402&SelectedFilter=AvailabilityGroup&PageSize=1000","storeId":"2402","uuid":"UZHAqHilhqUAAAFVznMwMkn4","outletTypeId":"outletType_myymalat","phone":"020 711 2402","name":"Alko Hämeenlinna Goodman","longitude":24.45576246},{"OpenDay0":"0","OpenDay1":"9-18","address":"Hauhontie 16","city":"HAUHO","postalCode":"14700","latitude":61.177102,"link":"https://www.alko.fi/tuotteet&#63;SearchParameter=%26%40QueryTerm%3D*%26OnlineFlag%3D1%26productInStore%3D2403&productInStore=2403&SelectedFilter=AvailabilityGroup&PageSize=1000","storeId":"2403","uuid":"qJ3AqHil28EAAAFVzXowMkn4","outletTypeId":"outletType_myymalat","phone":"020 711 2403","name":"Alko Hämeenlinna Hauho","longitude":24.56322},{"OpenDay0":"0","OpenDay1":"9-20","address":"Laaniitynkatu 2","city":"HÄMEENLINNA","postalCode":"13210","latitude":61.006264,"link":"https://www.alko.fi/tuotteet&#63;SearchParameter=%26%40QueryTerm%3D*%26OnlineFlag%3D1%26productInStore%3D2417&productInStore=2417&SelectedFilter=AvailabilityGroup&PageSize=1000","storeId":"2417","uuid":"1P3AqHilmkMAAAFVu9MwMkn4","outletTypeId":"outletType_myymalat","phone":"020 711 2417","name":"Alko Hämeenlinna Idänpää","longitude":24.506237},{"OpenDay0":"0","OpenDay1":"9-18","address":"Mommilantie 1","city":"LAMMI","postalCode":"16900","latitude":61.079737,"link":"https://www.alko.fi/tuotteet&#63;SearchParameter=%26%40QueryTerm%3D*%26OnlineFlag%3D1%26productInStore%3D2407&productInStore=2407&SelectedFilter=AvailabilityGroup&PageSize=1000","storeId":"2407","uuid":"0vLAqHilOo0AAAFVf5UwMkn4","outletTypeId":"outletType_myymalat","phone":"020 711 2407","name":"Alko Hämeenlinna Lammi","longitude":25.011652},{"OpenDay0":"0","OpenDay1":"9-20","address":"Katsastusmiehentie 6","city":"HÄMEENLINNA","postalCode":"13130","latitude":61.006729,"link":"https://www.alko.fi/tuotteet&#63;SearchParameter=%26%40QueryTerm%3D*%26OnlineFlag%3D1%26productInStore%3D2401&productInStore=2401&SelectedFilter=AvailabilityGroup&PageSize=1000","storeId":"2401","uuid":"85vAqHilBnIAAAFVnGwwMkn4","outletTypeId":"outletType_myymalat","phone":"020 711 2401","name":"Alko Hämeenlinna Tiiriö","longitude":24.419328},{"OpenDay0":"0","OpenDay1":"9-18","address":"Kisatie 2","city":"II","postalCode":"91100","latitude":65.322115,"link":"https://www.alko.fi/tuotteet&#63;SearchParameter=%26%40QueryTerm%3D*%26OnlineFlag%3D1%26productInStore%3D2840&productInStore=2840&SelectedFilter=AvailabilityGroup&PageSize=1000","storeId":"2840","uuid":"PtTAqHilbq8AAAFVO58wMkn9","outletTypeId":"outletType_myymalat","phone":"020 711 2840","name":"Alko Ii","longitude":25.377275},{"OpenDay0":"0","OpenDay1":"9-20","address":"Satamakatu 10","city":"IISALMI","postalCode":"74100","latitude":63.55605,"link":"https://www.alko.fi/tuotteet&#63;SearchParameter=%26%40QueryTerm%3D*%26OnlineFlag%3D1%26productInStore%3D2741&productInStore=2741&SelectedFilter=AvailabilityGroup&PageSize=1000","storeId":"2741","uuid":"aQ_AqHilePEAAAFVE58wMkn7","outletTypeId":"outletType_myymalat","phone":"020 711 2741","name":"Alko Iisalmi","longitude":27.189721},{"OpenDay0":"0","OpenDay1":"9-18","address":"Kauppakatu 13","city":"KAUSALA","postalCode":"47400","latitude":60.888789,"link":"https://www.alko.fi/tuotteet&#63;SearchParameter=%26%40QueryTerm%3D*%26OnlineFlag%3D1%26productInStore%3D2769&productInStore=2769&SelectedFilter=AvailabilityGroup&PageSize=1000","storeId":"2769","uuid":"yffAqHilfZMAAAFVnEswMkn8","outletTypeId":"outletType_myymalat","phone":"020 711 2769","name":"Alko Iitti Kausala","longitude":26.340823},{"OpenDay0":"0","OpenDay1":"9-18","address":"Teollisuustalontie 2","city":"IKAALINEN","postalCode":"39500","latitude":61.761445,"link":"https://www.alko.fi/tuotteet&#63;SearchParameter=%26%40QueryTerm%3D*%26OnlineFlag%3D1%26productInStore%3D2438&productInStore=2438&SelectedFilter=AvailabilityGroup&PageSize=1000","storeId":"2438","uuid":"sovAqHil5U4AAAFV5mEwMkn5","outletTypeId":"outletType_myymalat","phone":"020 711 2438","name":"Alko Ikaalinen","longitude":23.071311},{"OpenDay0":"0","OpenDay1":"9-18","address":"Kauppatie 20","city":"ILMAJOKI","postalCode":"60800","latitude":62.730331,"link":"https://www.alko.fi/tuotteet&#63;SearchParameter=%26%40QueryTerm%3D*%26OnlineFlag%3D1%26productInStore%3D2271&productInStore=2271&SelectedFilter=AvailabilityGroup&PageSize=1000","storeId":"2271","uuid":"0ljAqHilElUAAAFVic8wMkn3","outletTypeId":"outletType_myymalat","phone":"020 711 2271","name":"Alko Ilmajoki","longitude":22.57851},{"OpenDay0":"0","OpenDay1":"9-18","address":"Mantsintie 1-3","city":"ILOMANTSI","postalCode":"82900","latitude":62.672287,"link":"https://www.alko.fi/tuotteet&#63;SearchParameter=%26%40QueryTerm%3D*%26OnlineFlag%3D1%26productInStore%3D2708&productInStore=2708&SelectedFilter=AvailabilityGroup&PageSize=1000","storeId":"2708","uuid":"XZDAqHilHpkAAAFVUQ4wMkn7","outletTypeId":"outletType_myymalat","phone":"020 711 2708","name":"Alko Ilomantsi","longitude":30.934764},{"OpenDay0":"0","OpenDay1":"9-20","address":"Karhumäenkatu 1","city":"IMATRA","postalCode":"55120","latitude":61.189382,"link":"https://www.alko.fi/tuotteet&#63;SearchParameter=%26%40QueryTerm%3D*%26OnlineFlag%3D1%26productInStore%3D2795&productInStore=2795&SelectedFilter=AvailabilityGroup&PageSize=1000","storeId":"2795","uuid":"wcTAqHilVs4AAAFVmZ4wMkn8","outletTypeId":"outletType_myymalat","phone":"020 711 2795","name":"Alko Imatra Mansikkala","longitude":28.765665},{"OpenDay0":"0","OpenDay1":"9-20","address":"Torikatu 8","city":"IMATRA","postalCode":"55800","latitude":61.224899,"link":"https://www.alko.fi/tuotteet&#63;SearchParameter=%26%40QueryTerm%3D*%26OnlineFlag%3D1%26productInStore%3D2796&productInStore=2796&SelectedFilter=AvailabilityGroup&PageSize=1000","storeId":"2796","uuid":"vDDAqHilk7sAAAFVLaYwMkn8","outletTypeId":"outletType_myymalat","phone":"020 711 2796","name":"Alko Imatra Vuoksenniska","longitude":28.835851},{"OpenDay0":"0","OpenDay1":"9-18","address":"Petsamontie 2","city":"IVALO","postalCode":"99800","latitude":68.659689,"link":"https://www.alko.fi/tuotteet&#63;SearchParameter=%26%40QueryTerm%3D*%26OnlineFlag%3D1%26productInStore%3D2851&productInStore=2851&SelectedFilter=AvailabilityGroup&PageSize=1000","storeId":"2851","uuid":"1t7AqHilfqUAAAFVX88wMkn9","outletTypeId":"outletType_myymalat","phone":"020 711 2851","name":"Alko Inari Ivalo","longitude":27.541203},{"OpenDay0":"0","OpenDay1":"12-18","address":"Saariseläntie 1, PL 16","city":"SAARISELKÄ","postalCode":"99831","latitude":68.419503,"link":"https://www.alko.fi/tuotteet&#63;SearchParameter=%26%40QueryTerm%3D*%26OnlineFlag%3D1%26productInStore%3D2852&productInStore=2852&SelectedFilter=AvailabilityGroup&PageSize=1000","storeId":"2852","uuid":"BOPAqHil2skAAAFVfNYwMkn9","outletTypeId":"outletType_myymalat","phone":"020 711 2852","name":"Alko Inari Saariselkä","longitude":27.408828},{"OpenDay0":"0","OpenDay1":"10-18","address":"Rantatie 3","city":"INKOO","postalCode":"10210","latitude":60.043109,"link":"https://www.alko.fi/tuotteet&#63;SearchParameter=%26%40QueryTerm%3D*%26OnlineFlag%3D1%26productInStore%3D2174&productInStore=2174&SelectedFilter=AvailabilityGroup&PageSize=1000","storeId":"2174","uuid":"L1bAqHilH6cAAAFVpqswMkn1","outletTypeId":"outletType_myymalat","phone":"020 711 2174","name":"Alko Inkoo","longitude":24.005258},{"OpenDay0":"0","OpenDay1":"9-18","address":"Harvialantie 5","city":"TURENKI","postalCode":"14200","latitude":60.922183,"link":"https://www.alko.fi/tuotteet&#63;SearchParameter=%26%40QueryTerm%3D*%26OnlineFlag%3D1%26productInStore%3D2404&productInStore=2404&SelectedFilter=AvailabilityGroup&PageSize=1000","storeId":"2404","uuid":"UxrAqHilcAEAAAFV4H8wMkn4","outletTypeId":"outletType_myymalat","phone":"020 711 2404","name":"Alko Janakkala Turenki","longitude":24.648765},{"OpenDay0":"0","OpenDay1":"11-17","address":"Kauppatie 11","city":"ENO","postalCode":"81200","latitude":62.798109,"link":"https://www.alko.fi/tuotteet&#63;SearchParameter=%26%40QueryTerm%3D*%26OnlineFlag%3D1%26productInStore%3D2705&productInStore=2705&SelectedFilter=AvailabilityGroup&PageSize=1000","storeId":"2705","uuid":"fdHAqHilxM8AAAFV._EwMkn6","outletTypeId":"outletType_myymalat","phone":"020 711 2705","name":"Alko Joensuu Eno","longitude":30.149654},{"OpenDay0":"0","OpenDay1":"9-20","address":"Voimatie 2","city":"JOENSUU","postalCode":"80100","latitude":62.616772,"link":"https://www.alko.fi/tuotteet&#63;SearchParameter=%26%40QueryTerm%3D*%26OnlineFlag%3D1%26productInStore%3D2702&productInStore=2702&SelectedFilter=AvailabilityGroup&PageSize=1000","storeId":"2702","uuid":"fm3AqHilMsUAAAFVcMwwMkn6","outletTypeId":"outletType_myymalat","phone":"020 711 2702","name":"Alko Joensuu Käpykangas Prisma","longitude":29.778605},{"OpenDay0":"0","OpenDay1":"9-20","address":"Linjatie 2","city":"JOENSUU","postalCode":"80140","latitude":62.628467,"link":"https://www.alko.fi/tuotteet&#63;SearchParameter=%26%40QueryTerm%3D*%26OnlineFlag%3D1%26productInStore%3D2703&productInStore=2703&SelectedFilter=AvailabilityGroup&PageSize=1000","storeId":"2703","uuid":".A7AqHil3dYAAAFVHdcwMkn6","outletTypeId":"outletType_myymalat","phone":"020 711 2703","name":"Alko Joensuu Pilkko Citymarket","longitude":29.703467},{"OpenDay0":"0","OpenDay1":"9-20","address":"Rantakatu 19","city":"JOENSUU","postalCode":"80100","latitude":62.60097536,"link":"https://www.alko.fi/tuotteet&#63;SearchParameter=%26%40QueryTerm%3D*%26OnlineFlag%3D1%26productInStore%3D2701&productInStore=2701&SelectedFilter=AvailabilityGroup&PageSize=1000","storeId":"2701","uuid":"xlLAqHil09sAAAFV3MIwMkn6","outletTypeId":"outletType_myymalat","phone":"020 711 2701","name":"Alko Joensuu keskusta Sokos","longitude":29.76513027},{"OpenDay0":"0","OpenDay1":"10-19","address":"Sparvägen 1","city":"JOMALA","postalCode":"22150","latitude":60.12942065,"link":"https://www.alko.fi/tuotteet&#63;SearchParameter=%26%40QueryTerm%3D*%26OnlineFlag%3D1%26productInStore%3D2246&productInStore=2246&SelectedFilter=AvailabilityGroup&PageSize=1000","storeId":"2246","uuid":"76vAqHillZMAAAFVM0kwMkn3","outletTypeId":"outletType_myymalat","phone":"020 711 2246","name":"Alko Jomala Maxinge Center","longitude":19.93339955},{"OpenDay0":"0","OpenDay1":"9-18","address":"Yhdystie 9","city":"JOUTSA","postalCode":"19650","latitude":61.744075,"link":"https://www.alko.fi/tuotteet&#63;SearchParameter=%26%40QueryTerm%3D*%26OnlineFlag%3D1%26productInStore%3D2497&productInStore=2497&SelectedFilter=AvailabilityGroup&PageSize=1000","storeId":"2497","uuid":"2QXAqHilPbMAAAFVja4wMkn6","outletTypeId":"outletType_myymalat","phone":"020 711 2497","name":"Alko Joutsa","longitude":26.106857},{"OpenDay0":"0","OpenDay1":"9-18","address":"Kirkkotie 4","city":"JUUKA","postalCode":"83900","latitude":63.24390297,"link":"https://www.alko.fi/tuotteet&#63;SearchParameter=%26%40QueryTerm%3D*%26OnlineFlag%3D1%26productInStore%3D2717&productInStore=2717&SelectedFilter=AvailabilityGroup&PageSize=1000","storeId":"2717","uuid":".RTAqHiliHkAAAFVFC8wMkn7","outletTypeId":"outletType_myymalat","phone":"020 711 2717","name":"Alko Juuka","longitude":29.25330457},{"OpenDay0":"0","OpenDay1":"9-18","address":"Piikkiläntie 8","city":"JUVA","postalCode":"51900","latitude":61.896569,"link":"https://www.alko.fi/tuotteet&#63;SearchParameter=%26%40QueryTerm%3D*%26OnlineFlag%3D1%26productInStore%3D2725&productInStore=2725&SelectedFilter=AvailabilityGroup&PageSize=1000","storeId":"2725","uuid":"sN_AqHiloCIAAAFVzlIwMkn7","outletTypeId":"outletType_myymalat","phone":"020 711 2725","name":"Alko Juva","longitude":27.855548},{"OpenDay0":"0","OpenDay1":"9-20","address":"Kylmälahdentie 6","city":"JYVÄSKYLÄ","postalCode":"40500","latitude":62.216138,"link":"https://www.alko.fi/tuotteet&#63;SearchParameter=%26%40QueryTerm%3D*%26OnlineFlag%3D1%26productInStore%3D2493&productInStore=2493&SelectedFilter=AvailabilityGroup&PageSize=1000","storeId":"2493","uuid":"d2XAqHilkq0AAAFVYZAwMkn6","outletTypeId":"outletType_myymalat","phone":"020 711 2493","name":"Alko Jyväskylä Keljo Keljon kauppakeskus","longitude":25.718685},{"OpenDay0":"0","OpenDay1":"9-20","address":"Palokanorsi 1","city":"PALOKKA","postalCode":"40270","latitude":62.288429,"link":"https://www.alko.fi/tuotteet&#63;SearchParameter=%26%40QueryTerm%3D*%26OnlineFlag%3D1%26productInStore%3D2490&productInStore=2490&SelectedFilter=AvailabilityGroup&PageSize=1000","storeId":"2490","uuid":"JxbAqHilWwYAAAFVBHowMkn6","outletTypeId":"outletType_myymalat","phone":"020 711 2490","name":"Alko Jyväskylä Palokka Prisma","longitude":25.717012},{"OpenDay0":"0","OpenDay1":"9-20","address":"Vasarakatu 29","city":"JYVÄSKYLÄ","postalCode":"40320","latitude":62.264256,"link":"https://www.alko.fi/tuotteet&#63;SearchParameter=%26%40QueryTerm%3D*%26OnlineFlag%3D1%26productInStore%3D2456&productInStore=2456&SelectedFilter=AvailabilityGroup&PageSize=1000","storeId":"2456","uuid":"GePAqHilfI0AAAFVapUwMkn5","outletTypeId":"outletType_myymalat","phone":"020 711 2456","name":"Alko Jyväskylä Seppälä Citymarket","longitude":25.774871},{"OpenDay0":"0","OpenDay1":"9-20","address":"Vapaaherrantie 11","city":"JYVÄSKYLÄ","postalCode":"40320","latitude":62.2548275,"link":"https://www.alko.fi/tuotteet&#63;SearchParameter=%26%40QueryTerm%3D*%26OnlineFlag%3D1%26productInStore%3D2492&productInStore=2492&SelectedFilter=AvailabilityGroup&PageSize=1000","storeId":"2492","uuid":"DYzAqHil7c4AAAFVI4swMkn6","outletTypeId":"outletType_myymalat","phone":"020 711 2492","name":"Alko Jyväskylä Tourula Minimani","longitude":25.76354067},{"OpenDay0":"0","OpenDay1":"9-20","address":"Asematie 1","city":"VAAJAKOSKI","postalCode":"40800","latitude":62.24830942,"link":"https://www.alko.fi/tuotteet&#63;SearchParameter=%26%40QueryTerm%3D*%26OnlineFlag%3D1%26productInStore%3D2495&productInStore=2495&SelectedFilter=AvailabilityGroup&PageSize=1000","storeId":"2495","uuid":"GKXAqHilegwAAAFVaJ8wMkn6","outletTypeId":"outletType_myymalat","phone":"020 711 2495","name":"Alko Jyväskylä Vaajakoski","longitude":25.87760269},{"OpenDay0":"0","OpenDay1":"0","address":"Asemakatu 8","city":"JYVÄSKYLÄ","postalCode":"40100","latitude":62.242713,"link":"https://www.alko.fi/tuotteet&#63;SearchParameter=%26%40QueryTerm%3D*%26OnlineFlag%3D1%26productInStore%3D2491&productInStore=2491&SelectedFilter=AvailabilityGroup&PageSize=1000","storeId":"2491","uuid":"vEjAqHil0zUAAAFVw4EwMkn6","outletTypeId":"outletType_myymalat","phone":"020 711 2491","name":"Alko Jyväskylä keskusta Sokkari","longitude":25.748515},{"OpenDay0":"0","OpenDay1":"9-20","address":"Siltakatu 10","city":"JÄMSÄ","postalCode":"42100","latitude":61.866123,"link":"https://www.alko.fi/tuotteet&#63;SearchParameter=%26%40QueryTerm%3D*%26OnlineFlag%3D1%26productInStore%3D2496&productInStore=2496&SelectedFilter=AvailabilityGroup&PageSize=1000","storeId":"2496","uuid":"04jAqHilnkIAAAFVN6UwMkn6","outletTypeId":"outletType_myymalat","phone":"020 711 2496","name":"Alko Jämsä","longitude":25.196518},{"OpenDay0":"0","OpenDay1":"9-20","address":"Helsingintie 41","city":"JÄRVENPÄÄ","postalCode":"04410","latitude":60.477074,"link":"https://www.alko.fi/tuotteet&#63;SearchParameter=%26%40QueryTerm%3D*%26OnlineFlag%3D1%26productInStore%3D2183&productInStore=2183&SelectedFilter=AvailabilityGroup&PageSize=1000","storeId":"2183","uuid":"pRzAqHilBWsAAAFVX.wwMkn1","outletTypeId":"outletType_myymalat","phone":"020 711 2183","name":"Alko Järvenpää Citymarket","longitude":25.101949},{"OpenDay0":"0","OpenDay1":"9-20","address":"Rantakatu 5","city":"JÄRVENPÄÄ","postalCode":"04400","latitude":60.469467,"link":"https://www.alko.fi/tuotteet&#63;SearchParameter=%26%40QueryTerm%3D*%26OnlineFlag%3D1%26productInStore%3D2185&productInStore=2185&SelectedFilter=AvailabilityGroup&PageSize=1000","storeId":"2185","uuid":"Z_XAqHili5cAAAFVavswMkn1","outletTypeId":"outletType_myymalat","phone":"020 711 2185","name":"Alko Järvenpää Prisma","longitude":25.084828},{"OpenDay0":"0","OpenDay1":"9-20","address":"Hovirinnantie 5","city":"KAARINA","postalCode":"20780","latitude":60.407876,"link":"https://www.alko.fi/tuotteet&#63;SearchParameter=%26%40QueryTerm%3D*%26OnlineFlag%3D1%26productInStore%3D2210&productInStore=2210&SelectedFilter=AvailabilityGroup&PageSize=1000","storeId":"2210","uuid":"BALAqHilvUoAAAFVfWkwMkn2","outletTypeId":"outletType_myymalat","phone":"020 711 2210","name":"Alko Kaarina","longitude":22.36202},{"OpenDay0":"0","OpenDay1":"9-18","address":"Lukkarintie 2","city":"PIIKKIÖ","postalCode":"21500","latitude":60.425945,"link":"https://www.alko.fi/tuotteet&#63;SearchParameter=%26%40QueryTerm%3D*%26OnlineFlag%3D1%26productInStore%3D2218&productInStore=2218&SelectedFilter=AvailabilityGroup&PageSize=1000","storeId":"2218","uuid":"TFfAqHil_AsAAAFVFpcwMkn2","outletTypeId":"outletType_myymalat","phone":"020 711 2218","name":"Alko Kaarina Piikkiö","longitude":22.514209},{"OpenDay0":"0","OpenDay1":"9-18","address":"Kaavintie 5","city":"KAAVI","postalCode":"73600","latitude":62.974878,"link":"https://www.alko.fi/tuotteet&#63;SearchParameter=%26%40QueryTerm%3D*%26OnlineFlag%3D1%26productInStore%3D2757&productInStore=2757&SelectedFilter=AvailabilityGroup&PageSize=1000","storeId":"2757","uuid":"XZ7AqHil.70AAAFVJQEwMkn8","outletTypeId":"outletType_myymalat","phone":"020 711 2757","name":"Alko Kaavi","longitude":28.479923},{"OpenDay0":"0","OpenDay1":"9-20","address":"Veturitie 1","city":"KAJAANI","postalCode":"87100","latitude":64.22102,"link":"https://www.alko.fi/tuotteet&#63;SearchParameter=%26%40QueryTerm%3D*%26OnlineFlag%3D1%26productInStore%3D2821&productInStore=2821&SelectedFilter=AvailabilityGroup&PageSize=1000","storeId":"2821","uuid":"KTfAqHilkyYAAAFVsScwMkn9","outletTypeId":"outletType_myymalat","phone":"020 711 2821","name":"Alko Kajaani Prisma","longitude":27.748742},{"OpenDay0":"0","OpenDay1":"9-20","address":"Kauppakatu 10","city":"KAJAANI","postalCode":"87100","latitude":64.223235,"link":"https://www.alko.fi/tuotteet&#63;SearchParameter=%26%40QueryTerm%3D*%26OnlineFlag%3D1%26productInStore%3D2825&productInStore=2825&SelectedFilter=AvailabilityGroup&PageSize=1000","storeId":"2825","uuid":"lPLAqHilWpEAAAFVkEMwMkn9","outletTypeId":"outletType_myymalat","phone":"020 711 2825","name":"Alko Kajaani keskusta Citymarket","longitude":27.736667},{"OpenDay0":"0","OpenDay1":"9-18","address":"Merenojantie 2","city":"KALAJOKI","postalCode":"85100","latitude":64.260334,"link":"https://www.alko.fi/tuotteet&#63;SearchParameter=%26%40QueryTerm%3D*%26OnlineFlag%3D1%26productInStore%3D2802&productInStore=2802&SelectedFilter=AvailabilityGroup&PageSize=1000","storeId":"2802","uuid":"Xy3AqHilvvwAAAFVZsYwMkn8","outletTypeId":"outletType_myymalat","phone":"020 711 2802","name":"Alko Kalajoki","longitude":23.950219},{"OpenDay0":"0","OpenDay1":"9-20","address":"Mäkirinteentie 10","city":"KANGASALA","postalCode":"36220","latitude":61.475768,"link":"https://www.alko.fi/tuotteet&#63;SearchParameter=%26%40QueryTerm%3D*%26OnlineFlag%3D1%26productInStore%3D2476&productInStore=2476&SelectedFilter=AvailabilityGroup&PageSize=1000","storeId":"2476","uuid":"u5_AqHil4AAAAAFV6AowMkn6","outletTypeId":"outletType_myymalat","phone":"020 711 2476","name":"Alko Kangasala Prisma","longitude":23.979021},{"OpenDay0":"0","OpenDay1":"9-20","address":"Finnentie 1","city":"KANGASALA","postalCode":"36200","latitude":61.462044,"link":"https://www.alko.fi/tuotteet&#63;SearchParameter=%26%40QueryTerm%3D*%26OnlineFlag%3D1%26productInStore%3D2467&productInStore=2467&SelectedFilter=AvailabilityGroup&PageSize=1000","storeId":"2467","uuid":"ntvAqHilYKEAAAFVWcYwMkn5","outletTypeId":"outletType_myymalat","phone":"020 711 2467","name":"Alko Kangasala keskusta","longitude":24.068789},{"OpenDay0":"0","OpenDay1":"9-18","address":"Otto Mannisen tie 10","city":"KANGASNIEMI","postalCode":"51200","latitude":61.987915,"link":"https://www.alko.fi/tuotteet&#63;SearchParameter=%26%40QueryTerm%3D*%26OnlineFlag%3D1%26productInStore%3D2723&productInStore=2723&SelectedFilter=AvailabilityGroup&PageSize=1000","storeId":"2723","uuid":"qqXAqHilRK0AAAFVa0YwMkn7","outletTypeId":"outletType_myymalat","phone":"020 711 2723","name":"Alko Kangasniemi","longitude":26.642199},{"OpenDay0":"0","OpenDay1":"9-18","address":"Asemakatu 2","city":"KANKAANPÄÄ","postalCode":"38700","latitude":61.81274826,"link":"https://www.alko.fi/tuotteet&#63;SearchParameter=%26%40QueryTerm%3D*%26OnlineFlag%3D1%26productInStore%3D2260&productInStore=2260&SelectedFilter=AvailabilityGroup&PageSize=1000","storeId":"2260","uuid":"mXjAqHilLXAAAAFVMoswMkn3","outletTypeId":"outletType_myymalat","phone":"020 711 2260","name":"Alko Kankaanpää","longitude":22.37594487},{"OpenDay0":"0","OpenDay1":"9-18","address":"Torikuja 3","city":"KANNUS","postalCode":"69100","latitude":63.901444,"link":"https://www.alko.fi/tuotteet&#63;SearchParameter=%26%40QueryTerm%3D*%26OnlineFlag%3D1%26productInStore%3D2801&productInStore=2801&SelectedFilter=AvailabilityGroup&PageSize=1000","storeId":"2801","uuid":"R13AqHilytQAAAFV1b0wMkn8","outletTypeId":"outletType_myymalat","phone":"020 711 2801","name":"Alko Kannus","longitude":23.917357},{"OpenDay0":"0","OpenDay1":"9-20","address":"Mäntylänkatu 1","city":"KARKKILA","postalCode":"03600","latitude":60.534283,"link":"https://www.alko.fi/tuotteet&#63;SearchParameter=%26%40QueryTerm%3D*%26OnlineFlag%3D1%26productInStore%3D2178&productInStore=2178&SelectedFilter=AvailabilityGroup&PageSize=1000","storeId":"2178","uuid":"KlfAqHil3vEAAAFVD8kwMkn1","outletTypeId":"outletType_myymalat","phone":"020 711 2178","name":"Alko Karkkila","longitude":24.232129},{"OpenDay0":"0","OpenDay1":"11-17","address":"Keskustie 2","city":"KARSTULA","postalCode":"43500","latitude":62.879189,"link":"https://www.alko.fi/tuotteet&#63;SearchParameter=%26%40QueryTerm%3D*%26OnlineFlag%3D1%26productInStore%3D2484&productInStore=2484&SelectedFilter=AvailabilityGroup&PageSize=1000","storeId":"2484","uuid":"WezAqHil2P4AAAFViVowMkn6","outletTypeId":"outletType_myymalat","phone":"020 711 2484","name":"Alko Karstula","longitude":24.804008},{"OpenDay0":"0","OpenDay1":"9-18","address":"Topeeka 65","city":"KAUHAJOKI","postalCode":"61800","latitude":62.433197,"link":"https://www.alko.fi/tuotteet&#63;SearchParameter=%26%40QueryTerm%3D*%26OnlineFlag%3D1%26productInStore%3D2281&productInStore=2281&SelectedFilter=AvailabilityGroup&PageSize=1000","storeId":"2281","uuid":"BZ_AqHilWRAAAAFVJREwMkn4","outletTypeId":"outletType_myymalat","phone":"020 711 2281","name":"Alko Kauhajoki","longitude":22.184553},{"OpenDay0":"0","OpenDay1":"9-18","address":"Saharavainiontie 1","city":"HÄRMÄ","postalCode":"62300","latitude":63.239095,"link":"https://www.alko.fi/tuotteet&#63;SearchParameter=%26%40QueryTerm%3D*%26OnlineFlag%3D1%26productInStore%3D2283&productInStore=2283&SelectedFilter=AvailabilityGroup&PageSize=1000","storeId":"2283","uuid":"7R7AqHilMBMAAAFVyxwwMkn4","outletTypeId":"outletType_myymalat","phone":"020 711 2283","name":"Alko Kauhava Alahärmä","longitude":22.850262},{"OpenDay0":"0","OpenDay1":"9-18","address":"Heimolankuja 2","city":"KAUHAVA","postalCode":"62200","latitude":63.10041365,"link":"https://www.alko.fi/tuotteet&#63;SearchParameter=%26%40QueryTerm%3D*%26OnlineFlag%3D1%26productInStore%3D2275&productInStore=2275&SelectedFilter=AvailabilityGroup&PageSize=1000","storeId":"2275","uuid":"lYvAqHil6GkAAAFVWe4wMkn3","outletTypeId":"outletType_myymalat","phone":"020 711 2275","name":"Alko Kauhava keskusta","longitude":23.05322839},{"OpenDay0":"0","OpenDay1":"9-20","address":"Kauniaistentie 7","city":"KAUNIAINEN","postalCode":"02700","latitude":60.209916,"link":"https://www.alko.fi/tuotteet&#63;SearchParameter=%26%40QueryTerm%3D*%26OnlineFlag%3D1%26productInStore%3D2165&productInStore=2165&SelectedFilter=AvailabilityGroup&PageSize=1000","storeId":"2165","uuid":"_N3AqHilqnEAAAFVLm4wMkn1","outletTypeId":"outletType_myymalat","phone":"020 692 771","name":"Alko Kauniainen","longitude":24.729559},{"OpenDay0":"0","OpenDay1":"9-18","address":"Terveystie 1","city":"KAUSTINEN","postalCode":"69600","latitude":63.548236,"link":"https://www.alko.fi/tuotteet&#63;SearchParameter=%26%40QueryTerm%3D*%26OnlineFlag%3D1%26productInStore%3D2806&productInStore=2806&SelectedFilter=AvailabilityGroup&PageSize=1000","storeId":"2806","uuid":"XzjAqHilGD0AAAFVYuIwMkn8","outletTypeId":"outletType_myymalat","phone":"020 711 2806","name":"Alko Kaustinen","longitude":23.690022},{"OpenDay0":"0","OpenDay1":"9-20","address":"Asemakatu 1","city":"KEMI","postalCode":"94100","latitude":65.73967247,"link":"https://www.alko.fi/tuotteet&#63;SearchParameter=%26%40QueryTerm%3D*%26OnlineFlag%3D1%26productInStore%3D2865&productInStore=2865&SelectedFilter=AvailabilityGroup&PageSize=1000","storeId":"2865","uuid":"v.TAqHil1c8AAAFVjgowMkn.","outletTypeId":"outletType_myymalat","phone":"020 711 2865","name":"Alko Kemi","longitude":24.56472583},{"OpenDay0":"0","OpenDay1":"9-20","address":"Kirkkokatu 2-4","city":"KEMIJÄRVI","postalCode":"98100","latitude":66.71595476,"link":"https://www.alko.fi/tuotteet&#63;SearchParameter=%26%40QueryTerm%3D*%26OnlineFlag%3D1%26productInStore%3D2885&productInStore=2885&SelectedFilter=AvailabilityGroup&PageSize=1000","storeId":"2885","uuid":"HvbAqHilPikAAAFVHVcwMkn.","outletTypeId":"outletType_myymalat","phone":"020 711 2885","name":"Alko Kemijärvi","longitude":27.42840314},{"OpenDay0":"0","OpenDay1":"9-20","address":"Jokisuuntie 8","city":"KEMINMAA","postalCode":"94450","latitude":65.792657,"link":"https://www.alko.fi/tuotteet&#63;SearchParameter=%26%40QueryTerm%3D*%26OnlineFlag%3D1%26productInStore%3D2866&productInStore=2866&SelectedFilter=AvailabilityGroup&PageSize=1000","storeId":"2866","uuid":"nnDAqHiltlcAAAFVuhAwMkn.","outletTypeId":"outletType_myymalat","phone":"020 711 2866","name":"Alko Keminmaa","longitude":24.527461},{"OpenDay0":"0","OpenDay1":"11-16:30","address":"Malmintie 2","city":"TAALINTEHDAS","postalCode":"25900","latitude":60.01985,"link":"https://www.alko.fi/tuotteet&#63;SearchParameter=%26%40QueryTerm%3D*%26OnlineFlag%3D1%26productInStore%3D2236&productInStore=2236&SelectedFilter=AvailabilityGroup&PageSize=1000","storeId":"2236","uuid":"ExXAqHilHD4AAAFVVzwwMkn3","outletTypeId":"outletType_myymalat","phone":"020 711 2236","name":"Alko Kemiönsaari Dragsfjärd Taalintehdas","longitude":22.507252},{"OpenDay0":"0","OpenDay1":"9-18","address":"Engelsbyntie 15","city":"KEMIÖ","postalCode":"25700","latitude":60.164133,"link":"https://www.alko.fi/tuotteet&#63;SearchParameter=%26%40QueryTerm%3D*%26OnlineFlag%3D1%26productInStore%3D2235&productInStore=2235&SelectedFilter=AvailabilityGroup&PageSize=1000","storeId":"2235","uuid":"bSTAqHilpOEAAAFVqTMwMkn3","outletTypeId":"outletType_myymalat","phone":"020 711 2235","name":"Alko Kemiönsaari Kemiö","longitude":22.735125},{"OpenDay0":"0","OpenDay1":"9-20","address":"Myllytie 3","city":"KEMPELE","postalCode":"90440","latitude":64.90456779,"link":"https://www.alko.fi/tuotteet&#63;SearchParameter=%26%40QueryTerm%3D*%26OnlineFlag%3D1%26productInStore%3D2835&productInStore=2835&SelectedFilter=AvailabilityGroup&PageSize=1000","storeId":"2835","uuid":"XirAqHilz00AAAFV5IMwMkn9","outletTypeId":"outletType_myymalat","phone":"020 711 2835","name":"Alko Kempele","longitude":25.54288422},{"OpenDay0":"0","OpenDay1":"9-20","address":"Kauppakaari 2","city":"KERAVA","postalCode":"04200","latitude":60.402186,"link":"https://www.alko.fi/tuotteet&#63;SearchParameter=%26%40QueryTerm%3D*%26OnlineFlag%3D1%26productInStore%3D2182&productInStore=2182&SelectedFilter=AvailabilityGroup&PageSize=1000","storeId":"2182","uuid":"R5nAqHilLYsAAAFVw.QwMkn1","outletTypeId":"outletType_myymalat","phone":"020 711 2182","name":"Alko Kerava Prisma","longitude":25.103374},{"OpenDay0":"0","OpenDay1":"9-18","address":"Tervantie 2","city":"KEURUU","postalCode":"42700","latitude":62.261111,"link":"https://www.alko.fi/tuotteet&#63;SearchParameter=%26%40QueryTerm%3D*%26OnlineFlag%3D1%26productInStore%3D2482&productInStore=2482&SelectedFilter=AvailabilityGroup&PageSize=1000","storeId":"2482","uuid":"DY_AqHiltRwAAAFVp0UwMkn6","outletTypeId":"outletType_myymalat","phone":"020 711 2482","name":"Alko Keuruu","longitude":24.692028},{"OpenDay0":"0","OpenDay1":"9-20","address":"Munkinmäentie 29","city":"KIRKKONUMMI","postalCode":"02400","latitude":60.11846,"link":"https://www.alko.fi/tuotteet&#63;SearchParameter=%26%40QueryTerm%3D*%26OnlineFlag%3D1%26productInStore%3D2159&productInStore=2159&SelectedFilter=AvailabilityGroup&PageSize=1000","storeId":"2159","uuid":"GUPAqHilw74AAAFVWkIwMkn1","outletTypeId":"outletType_myymalat","phone":"020 711 2159","name":"Alko Kirkkonummi Munkinmäki Prisma","longitude":24.447016},{"OpenDay0":"0","OpenDay1":"9-18","address":"Kiteentie 6","city":"KITEE","postalCode":"82500","latitude":62.096865,"link":"https://www.alko.fi/tuotteet&#63;SearchParameter=%26%40QueryTerm%3D*%26OnlineFlag%3D1%26productInStore%3D2707&productInStore=2707&SelectedFilter=AvailabilityGroup&PageSize=1000","storeId":"2707","uuid":"SKrAqHilQs4AAAFVnQMwMkn7","outletTypeId":"outletType_myymalat","phone":"020 711 2707","name":"Alko Kitee","longitude":30.142089},{"OpenDay0":"0","OpenDay1":"10-18","address":"Leviraitti 18","city":"SIRKKA","postalCode":"99130","latitude":67.808927,"link":"https://www.alko.fi/tuotteet&#63;SearchParameter=%26%40QueryTerm%3D*%26OnlineFlag%3D1%26productInStore%3D2881&productInStore=2881&SelectedFilter=AvailabilityGroup&PageSize=1000","storeId":"2881","uuid":"MazAqHil6e4AAAFVa0IwMkn.","outletTypeId":"outletType_myymalat","phone":"020 711 2881","name":"Alko Kittilä Levi","longitude":24.806355},{"OpenDay0":"0","OpenDay1":"9-18","address":"Valtatie 68","city":"KITTILÄ","postalCode":"99100","latitude":67.6608263,"link":"https://www.alko.fi/tuotteet&#63;SearchParameter=%26%40QueryTerm%3D*%26OnlineFlag%3D1%26productInStore%3D2878&productInStore=2878&SelectedFilter=AvailabilityGroup&PageSize=1000","storeId":"2878","uuid":"TrHAqHilAU8AAAFV9yswMkn.","outletTypeId":"outletType_myymalat","phone":"020 711 2878","name":"Alko Kittilä keskusta","longitude":24.9034271},{"OpenDay0":"0","OpenDay1":"9-18","address":"Kukkomäentie 17","city":"KIURUVESI","postalCode":"74700","latitude":63.650315,"link":"https://www.alko.fi/tuotteet&#63;SearchParameter=%26%40QueryTerm%3D*%26OnlineFlag%3D1%26productInStore%3D2744&productInStore=2744&SelectedFilter=AvailabilityGroup&PageSize=1000","storeId":"2744","uuid":"qNbAqHil5mUAAAFVyrUwMkn7","outletTypeId":"outletType_myymalat","phone":"020 711 2744","name":"Alko Kiuruvesi","longitude":26.62015},{"OpenDay0":"0","OpenDay1":"9-18","address":"Haapionkatu 17","city":"KOKEMÄKI","postalCode":"32800","latitude":61.2553,"link":"https://www.alko.fi/tuotteet&#63;SearchParameter=%26%40QueryTerm%3D*%26OnlineFlag%3D1%26productInStore%3D2267&productInStore=2267&SelectedFilter=AvailabilityGroup&PageSize=1000","storeId":"2267","uuid":"MofAqHilA3IAAAFVpbYwMkn3","outletTypeId":"outletType_myymalat","phone":"020 711 2267","name":"Alko Kokemäki","longitude":22.346165},{"OpenDay0":"0","OpenDay1":"9-20","address":"Prismantie 1","city":"KOKKOLA","postalCode":"67700","latitude":63.833051,"link":"https://www.alko.fi/tuotteet&#63;SearchParameter=%26%40QueryTerm%3D*%26OnlineFlag%3D1%26productInStore%3D2803&productInStore=2803&SelectedFilter=AvailabilityGroup&PageSize=1000","storeId":"2803","uuid":"RgnAqHilPtAAAAFVBs8wMkn8","outletTypeId":"outletType_myymalat","phone":"020 711 2803","name":"Alko Kokkola Kosila Prisma","longitude":23.122473},{"OpenDay0":"0","OpenDay1":"9-20","address":"Rautatienkatu 10","city":"KOKKOLA","postalCode":"67100","latitude":63.831796,"link":"https://www.alko.fi/tuotteet&#63;SearchParameter=%26%40QueryTerm%3D*%26OnlineFlag%3D1%26productInStore%3D2813&productInStore=2813&SelectedFilter=AvailabilityGroup&PageSize=1000","storeId":"2813","uuid":"SBrAqHiljvIAAAFVPAwwMkn9","outletTypeId":"outletType_myymalat","phone":"020 711 2813","name":"Alko Kokkola keskusta K-Supermarket","longitude":23.125562},{"OpenDay0":"0","OpenDay1":"10-18","address":"Sannanrannantie 3","city":"ÄKÄSLOMPOLO","postalCode":"95970","latitude":67.605228,"link":"https://www.alko.fi/tuotteet&#63;SearchParameter=%26%40QueryTerm%3D*%26OnlineFlag%3D1%26productInStore%3D2882&productInStore=2882&SelectedFilter=AvailabilityGroup&PageSize=1000","storeId":"2882","uuid":"s1TAqHilRPUAAAFVR0owMkn.","outletTypeId":"outletType_myymalat","phone":"020 711 2882","name":"Alko Kolari Ylläs Äkäslompolo","longitude":24.154617},{"OpenDay0":"0","OpenDay1":"10-18","address":"Jokijalantie 2 A","city":"KOLARI","postalCode":"95900","latitude":67.335298,"link":"https://www.alko.fi/tuotteet&#63;SearchParameter=%26%40QueryTerm%3D*%26OnlineFlag%3D1%26productInStore%3D2880&productInStore=2880&SelectedFilter=AvailabilityGroup&PageSize=1000","storeId":"2880","uuid":"RJDAqHilgQAAAAFV2jkwMkn.","outletTypeId":"outletType_myymalat","phone":"020 711 2880","name":"Alko Kolari keskusta","longitude":23.820361},{"OpenDay0":"0","OpenDay1":"9-20","address":"Karhukuja 4","city":"KOTKA","postalCode":"48600","latitude":60.513468,"link":"https://www.alko.fi/tuotteet&#63;SearchParameter=%26%40QueryTerm%3D*%26OnlineFlag%3D1%26productInStore%3D2783&productInStore=2783&SelectedFilter=AvailabilityGroup&PageSize=1000","storeId":"2783","uuid":"bkbAqHilSK0AAAFVpnMwMkn8","outletTypeId":"outletType_myymalat","phone":"020 711 2783","name":"Alko Kotka Karhula Lidl","longitude":26.936195},{"OpenDay0":"0","OpenDay1":"9-20","address":"Kirkkokatu 7","city":"KOTKA","postalCode":"48100","latitude":60.467086,"link":"https://www.alko.fi/tuotteet&#63;SearchParameter=%26%40QueryTerm%3D*%26OnlineFlag%3D1%26productInStore%3D2781&productInStore=2781&SelectedFilter=AvailabilityGroup&PageSize=1000","storeId":"2781","uuid":"TqvAqHilfEwAAAFVKmMwMkn8","outletTypeId":"outletType_myymalat","phone":"020 711 2781","name":"Alko Kotka Pasaati","longitude":26.943838},{"OpenDay0":"0","OpenDay1":"9-20","address":"Hakamäentie 1","city":"KOTKA","postalCode":"48400","latitude":60.501522,"link":"https://www.alko.fi/tuotteet&#63;SearchParameter=%26%40QueryTerm%3D*%26OnlineFlag%3D1%26productInStore%3D2782&productInStore=2782&SelectedFilter=AvailabilityGroup&PageSize=1000","storeId":"2782","uuid":"Ue_AqHilHLkAAAFVgW0wMkn8","outletTypeId":"outletType_myymalat","phone":"020 711 2782","name":"Alko Kotka Sutela Prisma","longitude":26.867186},{"OpenDay0":"0","OpenDay1":"9-18","address":"Lauttatie 1","city":"INKEROINEN","postalCode":"46900","latitude":60.692303,"link":"https://www.alko.fi/tuotteet&#63;SearchParameter=%26%40QueryTerm%3D*%26OnlineFlag%3D1%26productInStore%3D2765&productInStore=2765&SelectedFilter=AvailabilityGroup&PageSize=1000","storeId":"2765","uuid":"XHHAqHilikkAAAFV2y8wMkn8","outletTypeId":"outletType_myymalat","phone":"020 711 2765","name":"Alko Kouvola Inkeroinen","longitude":26.838245},{"OpenDay0":"0","OpenDay1":"9-20","address":"Tommolankatu 9","city":"KOUVOLA","postalCode":"45130","latitude":60.871403,"link":"https://www.alko.fi/tuotteet&#63;SearchParameter=%26%40QueryTerm%3D*%26OnlineFlag%3D1%26productInStore%3D2768&productInStore=2768&SelectedFilter=AvailabilityGroup&PageSize=1000","storeId":"2768","uuid":"F63AqHili1cAAAFVdkQwMkn8","outletTypeId":"outletType_myymalat","phone":"020 711 2768","name":"Alko Kouvola Korjala Prisma","longitude":26.658382},{"OpenDay0":"0","OpenDay1":"9-20","address":"Kymenlaaksonkatu 2","city":"KUUSANKOSKI","postalCode":"45700","latitude":60.90670791,"link":"https://www.alko.fi/tuotteet&#63;SearchParameter=%26%40QueryTerm%3D*%26OnlineFlag%3D1%26productInStore%3D2762&productInStore=2762&SelectedFilter=AvailabilityGroup&PageSize=1000","storeId":"2762","uuid":"huPAqHilHgsAAAFV2h4wMkn8","outletTypeId":"outletType_myymalat","phone":"020 711 2762","name":"Alko Kouvola Kuusankoski","longitude":26.62595067},{"OpenDay0":"0","OpenDay1":"9-20","address":"Tervasharjunkatu 1","city":"KUUSANKOSKI","postalCode":"45720","latitude":60.877378,"link":"https://www.alko.fi/tuotteet&#63;SearchParameter=%26%40QueryTerm%3D*%26OnlineFlag%3D1%26productInStore%3D2763&productInStore=2763&SelectedFilter=AvailabilityGroup&PageSize=1000","storeId":"2763","uuid":"5RXAqHilGrIAAAFV4ScwMkn8","outletTypeId":"outletType_myymalat","phone":"020 711 2763","name":"Alko Kouvola Tervaskangas","longitude":26.653954},{"OpenDay0":"0","OpenDay1":"9-18","address":"Kalevantie 1","city":"VALKEALA","postalCode":"45370","latitude":60.929977,"link":"https://www.alko.fi/tuotteet&#63;SearchParameter=%26%40QueryTerm%3D*%26OnlineFlag%3D1%26productInStore%3D2761&productInStore=2761&SelectedFilter=AvailabilityGroup&PageSize=1000","storeId":"2761","uuid":"PE3AqHilIhcAAAFVGBQwMkn8","outletTypeId":"outletType_myymalat","phone":"020 711 2761","name":"Alko Kouvola Valkeala","longitude":26.799732},{"OpenDay0":"0","OpenDay1":"9-20","address":"Kouvolankatu 15","city":"KOUVOLA","postalCode":"45100","latitude":60.868086,"link":"https://www.alko.fi/tuotteet&#63;SearchParameter=%26%40QueryTerm%3D*%26OnlineFlag%3D1%26productInStore%3D2767&productInStore=2767&SelectedFilter=AvailabilityGroup&PageSize=1000","storeId":"2767","uuid":"RXjAqHil_q8AAAFVCzkwMkn8","outletTypeId":"outletType_myymalat","phone":"020 711 2767","name":"Alko Kouvola keskusta","longitude":26.707253},{"OpenDay0":"0","OpenDay1":"9-18","address":"Merikatu 4","city":"KRISTIINANKAUPUNKI","postalCode":"64100","latitude":62.274808,"link":"https://www.alko.fi/tuotteet&#63;SearchParameter=%26%40QueryTerm%3D*%26OnlineFlag%3D1%26productInStore%3D2280&productInStore=2280&SelectedFilter=AvailabilityGroup&PageSize=1000","storeId":"2280","uuid":"ToPAqHil6gMAAAFVbwswMkn4","outletTypeId":"outletType_myymalat","phone":"020 711 2280","name":"Alko Kristiinankaupunki","longitude":21.380697},{"OpenDay0":"0","OpenDay1":"9-18","address":"Koulukatu 13","city":"KUHMO","postalCode":"88900","latitude":64.127205,"link":"https://www.alko.fi/tuotteet&#63;SearchParameter=%26%40QueryTerm%3D*%26OnlineFlag%3D1%26productInStore%3D2823&productInStore=2823&SelectedFilter=AvailabilityGroup&PageSize=1000","storeId":"2823","uuid":"o0bAqHilVpAAAAFVBjYwMkn9","outletTypeId":"outletType_myymalat","phone":"020 711 2823","name":"Alko Kuhmo","longitude":29.525218},{"OpenDay0":"0","OpenDay1":"9-18","address":"Toritie 54","city":"KUHMOINEN","postalCode":"17800","latitude":61.56593,"link":"https://www.alko.fi/tuotteet&#63;SearchParameter=%26%40QueryTerm%3D*%26OnlineFlag%3D1%26productInStore%3D2499&productInStore=2499&SelectedFilter=AvailabilityGroup&PageSize=1000","storeId":"2499","uuid":"p3vAqHilp7kAAAFVobwwMkn6","outletTypeId":"outletType_myymalat","phone":"020 711 2499","name":"Alko Kuhmoinen","longitude":25.181791},{"OpenDay0":"0","OpenDay1":"9-20","address":"Tehdaskatu 12","city":"KUOPIO","postalCode":"70620","latitude":62.88072691,"link":"https://www.alko.fi/tuotteet&#63;SearchParameter=%26%40QueryTerm%3D*%26OnlineFlag%3D1%26productInStore%3D2753&productInStore=2753&SelectedFilter=AvailabilityGroup&PageSize=1000","storeId":"2753","uuid":"3cTAqHilO44AAAFVWeMwMkn7","outletTypeId":"outletType_myymalat","phone":"020 711 2753","name":"Alko Kuopio Haapaniemi","longitude":27.66696907},{"OpenDay0":"0","OpenDay1":"11-17","address":"Kissakuusentie 2 C 21","city":"KARTTULA","postalCode":"72100","latitude":62.89481334,"link":"https://www.alko.fi/tuotteet&#63;SearchParameter=%26%40QueryTerm%3D*%26OnlineFlag%3D1%26productInStore%3D2758&productInStore=2758&SelectedFilter=AvailabilityGroup&PageSize=1000","storeId":"2758","uuid":"aEPAqHilcfYAAAFVwwowMkn8","outletTypeId":"outletType_myymalat","phone":"020 711 2758","name":"Alko Kuopio Karttula","longitude":26.97304991},{"OpenDay0":"0","OpenDay1":"10-20","address":"Matkuksentie 60 L 2","city":"KUOPIO","postalCode":"70800","latitude":62.82278181,"link":"https://www.alko.fi/tuotteet&#63;SearchParameter=%26%40QueryTerm%3D*%26OnlineFlag%3D1%26productInStore%3D2739&productInStore=2739&SelectedFilter=AvailabilityGroup&PageSize=1000","storeId":"2739","uuid":"dJLAqHil2E0AAAFVMZkwMkn7","outletTypeId":"outletType_myymalat","phone":"020 711 2739","name":"Alko Kuopio Matkus Shopping Center","longitude":27.60262387},{"OpenDay0":"0","OpenDay1":"9-18","address":"Laitilantie 27","city":"NILSIÄ","postalCode":"73300","latitude":63.200804,"link":"https://www.alko.fi/tuotteet&#63;SearchParameter=%26%40QueryTerm%3D*%26OnlineFlag%3D1%26productInStore%3D2747&productInStore=2747&SelectedFilter=AvailabilityGroup&PageSize=1000","storeId":"2747","uuid":"647AqHilXc8AAAFV1sMwMkn7","outletTypeId":"outletType_myymalat","phone":"020 711 2747","name":"Alko Kuopio Nilsiä","longitude":28.090054},{"OpenDay0":"0","OpenDay1":"9-20","address":"Petosentie 4","city":"KUOPIO","postalCode":"70820","latitude":62.83975443,"link":"https://www.alko.fi/tuotteet&#63;SearchParameter=%26%40QueryTerm%3D*%26OnlineFlag%3D1%26productInStore%3D2751&productInStore=2751&SelectedFilter=AvailabilityGroup&PageSize=1000","storeId":"2751","uuid":"1QXAqHilnRQAAAFVKMowMkn7","outletTypeId":"outletType_myymalat","phone":"020 711 2751","name":"Alko Kuopio Petonen","longitude":27.64726894},{"OpenDay0":"0","OpenDay1":"9-20","address":"Päivärannantie 18","city":"KUOPIO","postalCode":"70420","latitude":62.9324,"link":"https://www.alko.fi/tuotteet&#63;SearchParameter=%26%40QueryTerm%3D*%26OnlineFlag%3D1%26productInStore%3D2755&productInStore=2755&SelectedFilter=AvailabilityGroup&PageSize=1000","storeId":"2755","uuid":"yOPAqHilOIgAAAFV7_AwMkn7","outletTypeId":"outletType_myymalat","phone":"020 711 2755","name":"Alko Kuopio Päiväranta Citymarket","longitude":27.676868},{"OpenDay0":"0","OpenDay1":"9-20","address":"Savilahdentie 10, PL 1050","city":"KUOPIO","postalCode":"70700","latitude":62.888673,"link":"https://www.alko.fi/tuotteet&#63;SearchParameter=%26%40QueryTerm%3D*%26OnlineFlag%3D1%26productInStore%3D2754&productInStore=2754&SelectedFilter=AvailabilityGroup&PageSize=1000","storeId":"2754","uuid":"y0fAqHilgoYAAAFV_.owMkn7","outletTypeId":"outletType_myymalat","phone":"020 711 2754","name":"Alko Kuopio Savilahti Prisma","longitude":27.631822},{"OpenDay0":"0","OpenDay1":"9-20","address":"Haapaniemenkatu 24-26","city":"KUOPIO","postalCode":"70110","latitude":62.892187,"link":"https://www.alko.fi/tuotteet&#63;SearchParameter=%26%40QueryTerm%3D*%26OnlineFlag%3D1%26productInStore%3D2752&productInStore=2752&SelectedFilter=AvailabilityGroup&PageSize=1000","storeId":"2752","uuid":"F2TAqHil6H8AAAFVl9gwMkn7","outletTypeId":"outletType_myymalat","phone":"020 711 2752","name":"Alko Kuopio keskusta Sokos","longitude":27.676846},{"OpenDay0":"0","OpenDay1":"9-18","address":"Laurintie 22","city":"KURIKKA","postalCode":"61300","latitude":62.615955,"link":"https://www.alko.fi/tuotteet&#63;SearchParameter=%26%40QueryTerm%3D*%26OnlineFlag%3D1%26productInStore%3D2276&productInStore=2276&SelectedFilter=AvailabilityGroup&PageSize=1000","storeId":"2276","uuid":"JTvAqHilYi8AAAFVy_QwMkn3","outletTypeId":"outletType_myymalat","phone":"020 711 2276","name":"Alko Kurikka","longitude":22.394659},{"OpenDay0":"0","OpenDay1":"9-18","address":"Koskitie 21","city":"JALASJÄRVI","postalCode":"61600","latitude":62.487822,"link":"https://www.alko.fi/tuotteet&#63;SearchParameter=%26%40QueryTerm%3D*%26OnlineFlag%3D1%26productInStore%3D2279&productInStore=2279&SelectedFilter=AvailabilityGroup&PageSize=1000","storeId":"2279","uuid":"lgfAqHil640AAAFVawYwMkn4","outletTypeId":"outletType_myymalat","phone":"020 711 2279","name":"Alko Kurikka Jalasjärvi","longitude":22.751193},{"OpenDay0":"0","OpenDay1":"11-16:30","address":"Pleikiläntie 2","city":"KUSTAVI","postalCode":"23360","latitude":60.54504,"link":"https://www.alko.fi/tuotteet&#63;SearchParameter=%26%40QueryTerm%3D*%26OnlineFlag%3D1%26productInStore%3D2220&productInStore=2220&SelectedFilter=AvailabilityGroup&PageSize=1000","storeId":"2220","uuid":"VRDAqHilfK4AAAFVfaowMkn2","outletTypeId":"outletType_myymalat","phone":"020 711 2220","name":"Alko Kustavi","longitude":21.35508},{"OpenDay0":"0","OpenDay1":"10-18","address":"Rukankyläntie 8","city":"RUKATUNTURI","postalCode":"93825","latitude":66.16753,"link":"https://www.alko.fi/tuotteet&#63;SearchParameter=%26%40QueryTerm%3D*%26OnlineFlag%3D1%26productInStore%3D2848&productInStore=2848&SelectedFilter=AvailabilityGroup&PageSize=1000","storeId":"2848","uuid":"RWfAqHilzj0AAAFVgcgwMkn9","outletTypeId":"outletType_myymalat","phone":"020 711 2848","name":"Alko Kuusamo Ruka","longitude":29.138535},{"OpenDay0":"0","OpenDay1":"9-20","address":"Luomantie 1-3","city":"KUUSAMO","postalCode":"93600","latitude":65.955778,"link":"https://www.alko.fi/tuotteet&#63;SearchParameter=%26%40QueryTerm%3D*%26OnlineFlag%3D1%26productInStore%3D2846&productInStore=2846&SelectedFilter=AvailabilityGroup&PageSize=1000","storeId":"2846","uuid":"BUPAqHilkUEAAAFVSLkwMkn9","outletTypeId":"outletType_myymalat","phone":"020 711 2846","name":"Alko Kuusamo keskusta","longitude":29.160433},{"OpenDay0":"0","OpenDay1":"10-18","address":"Vaasantie 2","city":"KYYJÄRVI","postalCode":"43700","latitude":63.042851,"link":"https://www.alko.fi/tuotteet&#63;SearchParameter=%26%40QueryTerm%3D*%26OnlineFlag%3D1%26productInStore%3D2480&productInStore=2480&SelectedFilter=AvailabilityGroup&PageSize=1000","storeId":"2480","uuid":"WWjAqHilIKIAAAFV_y0wMkn6","outletTypeId":"outletType_myymalat","phone":"020 711 2480","name":"Alko Kyyjärvi","longitude":24.55906},{"OpenDay0":"0","OpenDay1":"9-18","address":"Ruukintie 1","city":"JÄRVELÄ","postalCode":"16600","latitude":60.870555,"link":"https://www.alko.fi/tuotteet&#63;SearchParameter=%26%40QueryTerm%3D*%26OnlineFlag%3D1%26productInStore%3D2410&productInStore=2410&SelectedFilter=AvailabilityGroup&PageSize=1000","storeId":"2410","uuid":"W13AqHilofYAAAFVjqcwMkn4","outletTypeId":"outletType_myymalat","phone":"020 711 2410","name":"Alko Kärkölä Järvelä","longitude":25.275816},{"OpenDay0":"0","OpenDay1":"0","address":"Haapajärventie 1","city":"KÄRSÄMÄKI","postalCode":"86710","latitude":63.97384,"link":"https://www.alko.fi/tuotteet&#63;SearchParameter=%26%40QueryTerm%3D*%26OnlineFlag%3D1%26productInStore%3D2814&productInStore=2814&SelectedFilter=AvailabilityGroup&PageSize=1000","storeId":"2814","uuid":"eqTAqHilUO8AAAFVOxIwMkn9","outletTypeId":"outletType_myymalat","phone":"020 711 2814","name":"Alko Kärsämäki","longitude":25.760726},{"OpenDay0":"0","OpenDay1":"9-20","address":"Johanneksenkatu 4","city":"LAHTI","postalCode":"15240","latitude":61.006472,"link":"https://www.alko.fi/tuotteet&#63;SearchParameter=%26%40QueryTerm%3D*%26OnlineFlag%3D1%26productInStore%3D2424&productInStore=2424&SelectedFilter=AvailabilityGroup&PageSize=1000","storeId":"2424","uuid":"cRzAqHil0K4AAAFVihYwMkn5","outletTypeId":"outletType_myymalat","phone":"020 711 2424","name":"Alko Lahti Holma","longitude":25.678272},{"OpenDay0":"0","OpenDay1":"9-20","address":"Kauppiaankatu 2","city":"LAHTI","postalCode":"15160","latitude":60.981861,"link":"https://www.alko.fi/tuotteet&#63;SearchParameter=%26%40QueryTerm%3D*%26OnlineFlag%3D1%26productInStore%3D2419&productInStore=2419&SelectedFilter=AvailabilityGroup&PageSize=1000","storeId":"2419","uuid":"rW7AqHilKkgAAAFVT.QwMkn4","outletTypeId":"outletType_myymalat","phone":"020 711 2419","name":"Alko Lahti Karisma","longitude":25.737246},{"OpenDay0":"0","OpenDay1":"9-20","address":"Ajokatu 83","city":"LAHTI","postalCode":"15610","latitude":60.958912,"link":"https://www.alko.fi/tuotteet&#63;SearchParameter=%26%40QueryTerm%3D*%26OnlineFlag%3D1%26productInStore%3D2423&productInStore=2423&SelectedFilter=AvailabilityGroup&PageSize=1000","storeId":"2423","uuid":"WW_AqHilUxkAAAFVkwswMkn5","outletTypeId":"outletType_myymalat","phone":"020 711 2423","name":"Alko Lahti Laune","longitude":25.654014},{"OpenDay0":"0","OpenDay1":"9-18","address":"Muurarintie 3","city":"NASTOLA","postalCode":"15550","latitude":60.937211,"link":"https://www.alko.fi/tuotteet&#63;SearchParameter=%26%40QueryTerm%3D*%26OnlineFlag%3D1%26productInStore%3D2426&productInStore=2426&SelectedFilter=AvailabilityGroup&PageSize=1000","storeId":"2426","uuid":"0ZvAqHilrm0AAAFV9SUwMkn5","outletTypeId":"outletType_myymalat","phone":"020 711 2426","name":"Alko Lahti Nastola Rakokivi","longitude":25.962447},{"OpenDay0":"0","OpenDay1":"9-20","address":"Simolanmutka 1","city":"LAHTI","postalCode":"15680","latitude":60.935637,"link":"https://www.alko.fi/tuotteet&#63;SearchParameter=%26%40QueryTerm%3D*%26OnlineFlag%3D1%26productInStore%3D2420&productInStore=2420&SelectedFilter=AvailabilityGroup&PageSize=1000","storeId":"2420","uuid":"c6LAqHilgSQAAAFVaOwwMkn4","outletTypeId":"outletType_myymalat","phone":"020 711 2420","name":"Alko Lahti Renkomäki","longitude":25.634262},{"OpenDay0":"0","OpenDay1":"9-20","address":"Aleksanterinkatu 19-21","city":"LAHTI","postalCode":"15110","latitude":60.98264,"link":"https://www.alko.fi/tuotteet&#63;SearchParameter=%26%40QueryTerm%3D*%26OnlineFlag%3D1%26productInStore%3D2422&productInStore=2422&SelectedFilter=AvailabilityGroup&PageSize=1000","storeId":"2422","uuid":"H37AqHiljoMAAAFVRQIwMkn5","outletTypeId":"outletType_myymalat","phone":"020 711 2422","name":"Alko Lahti Sokos","longitude":25.659033},{"OpenDay0":"0","OpenDay1":"9-20","address":"Kauppakatu 18","city":"LAHTI","postalCode":"15140","latitude":60.986219,"link":"https://www.alko.fi/tuotteet&#63;SearchParameter=%26%40QueryTerm%3D*%26OnlineFlag%3D1%26productInStore%3D2421&productInStore=2421&SelectedFilter=AvailabilityGroup&PageSize=1000","storeId":"2421","uuid":"NurAqHilsUUAAAFVlvYwMkn4","outletTypeId":"outletType_myymalat","phone":"020 711 2421","name":"Alko Lahti Syke","longitude":25.665995},{"OpenDay0":"0","OpenDay1":"9-18","address":"Kauppatie 6","city":"LAIHIA","postalCode":"66400","latitude":62.979224,"link":"https://www.alko.fi/tuotteet&#63;SearchParameter=%26%40QueryTerm%3D*%26OnlineFlag%3D1%26productInStore%3D2295&productInStore=2295&SelectedFilter=AvailabilityGroup&PageSize=1000","storeId":"2295","uuid":"bpHAqHiluGQAAAFVDWYwMkn4","outletTypeId":"outletType_myymalat","phone":"020 711 2295","name":"Alko Laihia","longitude":22.007448},{"OpenDay0":"0","OpenDay1":"9-18","address":"Kauppakatu 3","city":"LAITILA","postalCode":"23800","latitude":60.875964,"link":"https://www.alko.fi/tuotteet&#63;SearchParameter=%26%40QueryTerm%3D*%26OnlineFlag%3D1%26productInStore%3D2222&productInStore=2222&SelectedFilter=AvailabilityGroup&PageSize=1000","storeId":"2222","uuid":"QnzAqHil7VIAAAFVw8IwMkn2","outletTypeId":"outletType_myymalat","phone":"020 711 2222","name":"Alko Laitila","longitude":21.69798},{"OpenDay0":"0","OpenDay1":"9-18","address":"Linnansalmentie 12","city":"LAPINLAHTI","postalCode":"73100","latitude":63.366821,"link":"https://www.alko.fi/tuotteet&#63;SearchParameter=%26%40QueryTerm%3D*%26OnlineFlag%3D1%26productInStore%3D2742&productInStore=2742&SelectedFilter=AvailabilityGroup&PageSize=1000","storeId":"2742","uuid":"si3AqHilm2wAAAFVKKgwMkn7","outletTypeId":"outletType_myymalat","phone":"020 711 2742","name":"Alko Lapinlahti","longitude":27.399304},{"OpenDay0":"0","OpenDay1":"11:30-17","address":"Maneesintie 1","city":"LAPPAJÄRVI","postalCode":"62600","latitude":63.217527,"link":"https://www.alko.fi/tuotteet&#63;SearchParameter=%26%40QueryTerm%3D*%26OnlineFlag%3D1%26productInStore%3D2270&productInStore=2270&SelectedFilter=AvailabilityGroup&PageSize=1000","storeId":"2270","uuid":"LvnAqHilVM8AAAFVTMgwMkn3","outletTypeId":"outletType_myymalat","phone":"020 711 2270","name":"Alko Lappajärvi","longitude":23.623444},{"OpenDay0":"0","OpenDay1":"9-20","address":"Toikansuontie 4","city":"LAPPEENRANTA","postalCode":"53500","latitude":61.044756,"link":"https://www.alko.fi/tuotteet&#63;SearchParameter=%26%40QueryTerm%3D*%26OnlineFlag%3D1%26productInStore%3D2792&productInStore=2792&SelectedFilter=AvailabilityGroup&PageSize=1000","storeId":"2792","uuid":"QYDAqHilMewAAAFVwoUwMkn8","outletTypeId":"outletType_myymalat","phone":"020 711 2792","name":"Alko Lappeenranta Citymarket","longitude":28.202433},{"OpenDay0":"0","OpenDay1":"9-18","address":"Keskuskatu 4","city":"JOUTSENO","postalCode":"54100","latitude":61.118144,"link":"https://www.alko.fi/tuotteet&#63;SearchParameter=%26%40QueryTerm%3D*%26OnlineFlag%3D1%26productInStore%3D2794&productInStore=2794&SelectedFilter=AvailabilityGroup&PageSize=1000","storeId":"2794","uuid":"GlbAqHilS5YAAAFVzpQwMkn8","outletTypeId":"outletType_myymalat","phone":"020 711 2794","name":"Alko Lappeenranta Joutseno","longitude":28.501645},{"OpenDay0":"0","OpenDay1":"9-20","address":"Puhakankatu 9-11","city":"LAPPEENRANTA","postalCode":"53600","latitude":61.050894,"link":"https://www.alko.fi/tuotteet&#63;SearchParameter=%26%40QueryTerm%3D*%26OnlineFlag%3D1%26productInStore%3D2793&productInStore=2793&SelectedFilter=AvailabilityGroup&PageSize=1000","storeId":"2793","uuid":"23fAqHilLm0AAAFV9YwwMkn8","outletTypeId":"outletType_myymalat","phone":"020 711 2793","name":"Alko Lappeenranta Leiri Prisma","longitude":28.178024},{"OpenDay0":"0","OpenDay1":"9-20","address":"Kaivokatu 5","city":"LAPPEENRANTA","postalCode":"53100","latitude":61.057062,"link":"https://www.alko.fi/tuotteet&#63;SearchParameter=%26%40QueryTerm%3D*%26OnlineFlag%3D1%26productInStore%3D2791&productInStore=2791&SelectedFilter=AvailabilityGroup&PageSize=1000","storeId":"2791","uuid":"AJnAqHilJB8AAAFVnX8wMkn8","outletTypeId":"outletType_myymalat","phone":"020 711 2791","name":"Alko Lappeenranta keskusta Iso Kristiina","longitude":28.195178},{"OpenDay0":"0","OpenDay1":"9-18","address":"Latojantie 9","city":"LAPUA","postalCode":"62100","latitude":62.974633,"link":"https://www.alko.fi/tuotteet&#63;SearchParameter=%26%40QueryTerm%3D*%26OnlineFlag%3D1%26productInStore%3D2278&productInStore=2278&SelectedFilter=AvailabilityGroup&PageSize=1000","storeId":"2278","uuid":"wbzAqHil4koAAAFVAwEwMkn4","outletTypeId":"outletType_myymalat","phone":"020 711 2278","name":"Alko Lapua","longitude":23.023058},{"OpenDay0":"0","OpenDay1":"9-18","address":"Vuojärventie 1","city":"LAUKAA","postalCode":"41340","latitude":62.414399,"link":"https://www.alko.fi/tuotteet&#63;SearchParameter=%26%40QueryTerm%3D*%26OnlineFlag%3D1%26productInStore%3D2494&productInStore=2494&SelectedFilter=AvailabilityGroup&PageSize=1000","storeId":"2494","uuid":"3sLAqHil74oAAAFVEpgwMkn6","outletTypeId":"outletType_myymalat","phone":"020 711 2494","name":"Alko Laukaa","longitude":25.947971},{"OpenDay0":"0","OpenDay1":"9-20","address":"Ideaparkinkatu 4","city":"LEMPÄÄLÄ","postalCode":"37570","latitude":61.36169,"link":"https://www.alko.fi/tuotteet&#63;SearchParameter=%26%40QueryTerm%3D*%26OnlineFlag%3D1%26productInStore%3D2478&productInStore=2478&SelectedFilter=AvailabilityGroup&PageSize=1000","storeId":"2478","uuid":"1hTAqHil5kAAAAFVqh8wMkn6","outletTypeId":"outletType_myymalat","phone":"020 711 2478","name":"Alko Lempäälä Ideapark","longitude":23.795148},{"OpenDay0":"0","OpenDay1":"9-20","address":"Puistokatu 4","city":"LEMPÄÄLÄ","postalCode":"37500","latitude":61.31363842,"link":"https://www.alko.fi/tuotteet&#63;SearchParameter=%26%40QueryTerm%3D*%26OnlineFlag%3D1%26productInStore%3D2469&productInStore=2469&SelectedFilter=AvailabilityGroup&PageSize=1000","storeId":"2469","uuid":"SBLAqHilr1IAAAFVkNMwMkn5","outletTypeId":"outletType_myymalat","phone":"020 711 2469","name":"Alko Lempäälä keskusta","longitude":23.75915492},{"OpenDay0":"0","OpenDay1":"9-18","address":"Savonkatu 43","city":"LEPPÄVIRTA","postalCode":"79100","latitude":62.491531,"link":"https://www.alko.fi/tuotteet&#63;SearchParameter=%26%40QueryTerm%3D*%26OnlineFlag%3D1%26productInStore%3D2737&productInStore=2737&SelectedFilter=AvailabilityGroup&PageSize=1000","storeId":"2737","uuid":"LojAqHilnGIAAAFVb44wMkn7","outletTypeId":"outletType_myymalat","phone":"020 711 2737","name":"Alko Leppävirta","longitude":27.788592},{"OpenDay0":"0","OpenDay1":"9-18","address":"Pielisentie 34","city":"LIEKSA","postalCode":"81700","latitude":63.318832,"link":"https://www.alko.fi/tuotteet&#63;SearchParameter=%26%40QueryTerm%3D*%26OnlineFlag%3D1%26productInStore%3D2715&productInStore=2715&SelectedFilter=AvailabilityGroup&PageSize=1000","storeId":"2715","uuid":"AObAqHil2bEAAAFVwSIwMkn7","outletTypeId":"outletType_myymalat","phone":"020 711 2715","name":"Alko Lieksa","longitude":30.023454},{"OpenDay0":"0","OpenDay1":"9-18","address":"Hyvättyläntie 2","city":"LIETO","postalCode":"21420","latitude":60.50343,"link":"https://www.alko.fi/tuotteet&#63;SearchParameter=%26%40QueryTerm%3D*%26OnlineFlag%3D1%26productInStore%3D2211&productInStore=2211&SelectedFilter=AvailabilityGroup&PageSize=1000","storeId":"2211","uuid":"6srAqHilhE8AAAFVvG8wMkn2","outletTypeId":"outletType_myymalat","phone":"020 711 2211","name":"Alko Lieto","longitude":22.458444},{"OpenDay0":"0","OpenDay1":"9-18","address":"Pitkäkoskentie 15","city":"LIMINKA","postalCode":"91900","latitude":64.807193,"link":"https://www.alko.fi/tuotteet&#63;SearchParameter=%26%40QueryTerm%3D*%26OnlineFlag%3D1%26productInStore%3D2820&productInStore=2820&SelectedFilter=AvailabilityGroup&PageSize=1000","storeId":"2820","uuid":"tpHAqHilHTEAAAFV9h8wMkn9","outletTypeId":"outletType_myymalat","phone":"020 711 2820","name":"Alko Liminka","longitude":25.454925},{"OpenDay0":"0","OpenDay1":"9-18","address":"Heinävedentie 1","city":"LIPERI","postalCode":"83100","latitude":62.528664,"link":"https://www.alko.fi/tuotteet&#63;SearchParameter=%26%40QueryTerm%3D*%26OnlineFlag%3D1%26productInStore%3D2704&productInStore=2704&SelectedFilter=AvailabilityGroup&PageSize=1000","storeId":"2704","uuid":"qnfAqHil5uMAAAFVvuAwMkn6","outletTypeId":"outletType_myymalat","phone":"020 711 2704","name":"Alko Liperi","longitude":29.384322},{"OpenDay0":"0","OpenDay1":"9-20","address":"Reunakatu 1","city":"LOHJA","postalCode":"08200","latitude":60.226106,"link":"https://www.alko.fi/tuotteet&#63;SearchParameter=%26%40QueryTerm%3D*%26OnlineFlag%3D1%26productInStore%3D2176&productInStore=2176&SelectedFilter=AvailabilityGroup&PageSize=1000","storeId":"2176","uuid":"AEfAqHil6I0AAAFVrbkwMkn1","outletTypeId":"outletType_myymalat","phone":"020 711 2176","name":"Alko Lohja Ojamo","longitude":24.027483},{"OpenDay0":"0","OpenDay1":"9-20","address":"Kauppakatu 5-9","city":"LOHJA","postalCode":"08100","latitude":60.249308,"link":"https://www.alko.fi/tuotteet&#63;SearchParameter=%26%40QueryTerm%3D*%26OnlineFlag%3D1%26productInStore%3D2177&productInStore=2177&SelectedFilter=AvailabilityGroup&PageSize=1000","storeId":"2177","uuid":"4zLAqHiluSMAAAFVBMEwMkn1","outletTypeId":"outletType_myymalat","phone":"020 711 2177","name":"Alko Lohja keskusta Lohjantähti","longitude":24.065486},{"OpenDay0":"0","OpenDay1":"9-20","address":"Aleksis Kivenkatu 7","city":"LOIMAA","postalCode":"32200","latitude":60.855905,"link":"https://www.alko.fi/tuotteet&#63;SearchParameter=%26%40QueryTerm%3D*%26OnlineFlag%3D1%26productInStore%3D2238&productInStore=2238&SelectedFilter=AvailabilityGroup&PageSize=1000","storeId":"2238","uuid":"Fi_AqHilRhoAAAFVuUMwMkn3","outletTypeId":"outletType_myymalat","phone":"020 711 2238","name":"Alko Loimaa","longitude":23.045726},{"OpenDay0":"0","OpenDay1":"10-18","address":"Yhdystie 3","city":"LOPPI","postalCode":"12700","latitude":60.72052728,"link":"https://www.alko.fi/tuotteet&#63;SearchParameter=%26%40QueryTerm%3D*%26OnlineFlag%3D1%26productInStore%3D2409&productInStore=2409&SelectedFilter=AvailabilityGroup&PageSize=1000","storeId":"2409","uuid":"SibAqHilOuQAAAFVNKIwMkn4","outletTypeId":"outletType_myymalat","phone":"020 711 2409","name":"Alko Loppi","longitude":24.44281115},{"OpenDay0":"0","OpenDay1":"9-20","address":"Mariankatu 33","city":"LOVIISA","postalCode":"07900","latitude":60.458504,"link":"https://www.alko.fi/tuotteet&#63;SearchParameter=%26%40QueryTerm%3D*%26OnlineFlag%3D1%26productInStore%3D2192&productInStore=2192&SelectedFilter=AvailabilityGroup&PageSize=1000","storeId":"2192","uuid":"3ZHAqHilzvwAAAFVuRswMkn2","outletTypeId":"outletType_myymalat","phone":"020 711 2192","name":"Alko Loviisa","longitude":26.226186},{"OpenDay0":"0","OpenDay1":"11-17","address":"Riihitie 1","city":"TAAVETTI","postalCode":"54500","latitude":60.922663,"link":"https://www.alko.fi/tuotteet&#63;SearchParameter=%26%40QueryTerm%3D*%26OnlineFlag%3D1%26productInStore%3D2790&productInStore=2790&SelectedFilter=AvailabilityGroup&PageSize=1000","storeId":"2790","uuid":"nGbAqHilj5QAAAFVSnowMkn8","outletTypeId":"outletType_myymalat","phone":"020 711 2790","name":"Alko Luumäki Taavetti","longitude":27.568984},{"OpenDay0":"0","OpenDay1":"10-18","address":"Torggatan 13","city":"MAARIANHAMINA","postalCode":"22100","latitude":60.09891907,"link":"https://www.alko.fi/tuotteet&#63;SearchParameter=%26%40QueryTerm%3D*%26OnlineFlag%3D1%26productInStore%3D2247&productInStore=2247&SelectedFilter=AvailabilityGroup&PageSize=1000","storeId":"2247","uuid":"IeXAqHilQXUAAAFVnFAwMkn3","outletTypeId":"outletType_myymalat","phone":"020 711 2247","name":"Alko Maarianhamina Sittkoff","longitude":19.94232957},{"OpenDay0":"0","OpenDay1":"9-18","address":"Kauppatie 51","city":"MERIKARVIA","postalCode":"29900","latitude":61.859844,"link":"https://www.alko.fi/tuotteet&#63;SearchParameter=%26%40QueryTerm%3D*%26OnlineFlag%3D1%26productInStore%3D2255&productInStore=2255&SelectedFilter=AvailabilityGroup&PageSize=1000","storeId":"2255","uuid":"vVPAqHilrEYAAAFVqW8wMkn3","outletTypeId":"outletType_myymalat","phone":"020 711 2255","name":"Alko Merikarvia","longitude":21.504834},{"OpenDay0":"0","OpenDay1":"9-20","address":"Graanintie 1","city":"MIKKELI","postalCode":"50190","latitude":61.686663,"link":"https://www.alko.fi/tuotteet&#63;SearchParameter=%26%40QueryTerm%3D*%26OnlineFlag%3D1%26productInStore%3D2732&productInStore=2732&SelectedFilter=AvailabilityGroup&PageSize=1000","storeId":"2732","uuid":"V1rAqHilgrEAAAFV34AwMkn7","outletTypeId":"outletType_myymalat","phone":"020 711 2732","name":"Alko Mikkeli Graani","longitude":27.299714},{"OpenDay0":"0","OpenDay1":"9-18","address":"Brahentie 14","city":"RISTIINA","postalCode":"52300","latitude":61.510779,"link":"https://www.alko.fi/tuotteet&#63;SearchParameter=%26%40QueryTerm%3D*%26OnlineFlag%3D1%26productInStore%3D2720&productInStore=2720&SelectedFilter=AvailabilityGroup&PageSize=1000","storeId":"2720","uuid":"xWPAqHilTwkAAAFVgDQwMkn7","outletTypeId":"outletType_myymalat","phone":"020 711 2720","name":"Alko Mikkeli Ristiina","longitude":27.247587},{"OpenDay0":"0","OpenDay1":"9-20","address":"Savilahdenkatu 8","city":"MIKKELI","postalCode":"50100","latitude":61.689634,"link":"https://www.alko.fi/tuotteet&#63;SearchParameter=%26%40QueryTerm%3D*%26OnlineFlag%3D1%26productInStore%3D2722&productInStore=2722&SelectedFilter=AvailabilityGroup&PageSize=1000","storeId":"2722","uuid":"GTTAqHilK3kAAAFVpT8wMkn7","outletTypeId":"outletType_myymalat","phone":"020 711 2722","name":"Alko Mikkeli keskusta Stella","longitude":27.273595},{"OpenDay0":"0","OpenDay1":"9-18","address":"Valtatie 20","city":"MUHOS","postalCode":"91500","latitude":64.808204,"link":"https://www.alko.fi/tuotteet&#63;SearchParameter=%26%40QueryTerm%3D*%26OnlineFlag%3D1%26productInStore%3D2837&productInStore=2837&SelectedFilter=AvailabilityGroup&PageSize=1000","storeId":"2837","uuid":"7ULAqHilL8YAAAFVfZAwMkn9","outletTypeId":"outletType_myymalat","phone":"020 711 2837","name":"Alko Muhos","longitude":25.990905},{"OpenDay0":"0","OpenDay1":"10-18","address":"Lahenrannantie 1","city":"MUONIO","postalCode":"99300","latitude":67.955545,"link":"https://www.alko.fi/tuotteet&#63;SearchParameter=%26%40QueryTerm%3D*%26OnlineFlag%3D1%26productInStore%3D2879&productInStore=2879&SelectedFilter=AvailabilityGroup&PageSize=1000","storeId":"2879","uuid":"YN7AqHil.pcAAAFVYjMwMkn.","outletTypeId":"outletType_myymalat","phone":"020 711 2879","name":"Alko Muonio","longitude":23.683955},{"OpenDay0":"0","OpenDay1":"9-20","address":"Setäläntie 2","city":"MUURAME","postalCode":"40950","latitude":62.13647157,"link":"https://www.alko.fi/tuotteet&#63;SearchParameter=%26%40QueryTerm%3D*%26OnlineFlag%3D1%26productInStore%3D2479&productInStore=2479&SelectedFilter=AvailabilityGroup&PageSize=1000","storeId":"2479","uuid":"biXAqHill.wAAAFVKigwMkn6","outletTypeId":"outletType_myymalat","phone":"020 711 2479","name":"Alko Muurame","longitude":25.67371125},{"OpenDay0":"0","OpenDay1":"9-18","address":"Valtakatu 1","city":"MYNÄMÄKI","postalCode":"23100","latitude":60.684015,"link":"https://www.alko.fi/tuotteet&#63;SearchParameter=%26%40QueryTerm%3D*%26OnlineFlag%3D1%26productInStore%3D2224&productInStore=2224&SelectedFilter=AvailabilityGroup&PageSize=1000","storeId":"2224","uuid":"DazAqHillRgAAAFVZs0wMkn2","outletTypeId":"outletType_myymalat","phone":"020 711 2224","name":"Alko Mynämäki","longitude":21.989049},{"OpenDay0":"0","OpenDay1":"9-20","address":"Sälinkääntie 2","city":"MÄNTSÄLÄ","postalCode":"04600","latitude":60.63764,"link":"https://www.alko.fi/tuotteet&#63;SearchParameter=%26%40QueryTerm%3D*%26OnlineFlag%3D1%26productInStore%3D2184&productInStore=2184&SelectedFilter=AvailabilityGroup&PageSize=1000","storeId":"2184","uuid":"ovvAqHil7jUAAAFV2_IwMkn1","outletTypeId":"outletType_myymalat","phone":"020 711 2184","name":"Alko Mäntsälä","longitude":25.317703},{"OpenDay0":"0","OpenDay1":"9-18","address":"Seppälän puistotie 1","city":"MÄNTTÄ","postalCode":"35800","latitude":62.033163,"link":"https://www.alko.fi/tuotteet&#63;SearchParameter=%26%40QueryTerm%3D*%26OnlineFlag%3D1%26productInStore%3D2451&productInStore=2451&SelectedFilter=AvailabilityGroup&PageSize=1000","storeId":"2451","uuid":"uErAqHilBmkAAAFVTXwwMkn5","outletTypeId":"outletType_myymalat","phone":"020 711 2451","name":"Alko Mänttä","longitude":24.622603},{"OpenDay0":"0","OpenDay1":"9-18","address":"Liiketie 1","city":"MÄNTYHARJU","postalCode":"52700","latitude":61.416734,"link":"https://www.alko.fi/tuotteet&#63;SearchParameter=%26%40QueryTerm%3D*%26OnlineFlag%3D1%26productInStore%3D2724&productInStore=2724&SelectedFilter=AvailabilityGroup&PageSize=1000","storeId":"2724","uuid":"47PAqHilHywAAAFVBE0wMkn7","outletTypeId":"outletType_myymalat","phone":"020 711 2724","name":"Alko Mäntyharju","longitude":26.879372},{"OpenDay0":"0","OpenDay1":"9-20","address":"Tuulensuunkatu 12","city":"NAANTALI","postalCode":"21100","latitude":60.467433,"link":"https://www.alko.fi/tuotteet&#63;SearchParameter=%26%40QueryTerm%3D*%26OnlineFlag%3D1%26productInStore%3D2225&productInStore=2225&SelectedFilter=AvailabilityGroup&PageSize=1000","storeId":"2225","uuid":"MTHAqHilfT8AAAFVB98wMkn2","outletTypeId":"outletType_myymalat","phone":"020 711 2225","name":"Alko Naantali","longitude":22.030951},{"OpenDay0":"0","OpenDay1":"9-18","address":"Toritie 13","city":"NIVALA","postalCode":"85500","latitude":63.929164,"link":"https://www.alko.fi/tuotteet&#63;SearchParameter=%26%40QueryTerm%3D*%26OnlineFlag%3D1%26productInStore%3D2810&productInStore=2810&SelectedFilter=AvailabilityGroup&PageSize=1000","storeId":"2810","uuid":"YTDAqHilFqIAAAFVEv4wMkn8","outletTypeId":"outletType_myymalat","phone":"020 711 2810","name":"Alko Nivala","longitude":24.967176},{"OpenDay0":"0","OpenDay1":"9-20","address":"Välikatu 22","city":"NOKIA","postalCode":"37100","latitude":61.478415,"link":"https://www.alko.fi/tuotteet&#63;SearchParameter=%26%40QueryTerm%3D*%26OnlineFlag%3D1%26productInStore%3D2435&productInStore=2435&SelectedFilter=AvailabilityGroup&PageSize=1000","storeId":"2435","uuid":"3ILAqHilpJEAAAFVqkowMkn5","outletTypeId":"outletType_myymalat","phone":"020 711 2435","name":"Alko Nokia","longitude":23.512283},{"OpenDay0":"0","OpenDay1":"9-18","address":"Porokylänkatu 21","city":"NURMES","postalCode":"75500","latitude":63.556411,"link":"https://www.alko.fi/tuotteet&#63;SearchParameter=%26%40QueryTerm%3D*%26OnlineFlag%3D1%26productInStore%3D2711&productInStore=2711&SelectedFilter=AvailabilityGroup&PageSize=1000","storeId":"2711","uuid":"Ho_AqHilOzQAAAFVLR0wMkn7","outletTypeId":"outletType_myymalat","phone":"020 711 2711","name":"Alko Nurmes","longitude":29.105163},{"OpenDay0":"0","OpenDay1":"9-20","address":"Kauppanummentie 2","city":"NURMIJÄRVI","postalCode":"01900","latitude":60.457117,"link":"https://www.alko.fi/tuotteet&#63;SearchParameter=%26%40QueryTerm%3D*%26OnlineFlag%3D1%26productInStore%3D2180&productInStore=2180&SelectedFilter=AvailabilityGroup&PageSize=1000","storeId":"2180","uuid":"YVLAqHil3yYAAAFVmdUwMkn1","outletTypeId":"outletType_myymalat","phone":"020 711 2180","name":"Alko Nurmijärvi Kirkonkylä","longitude":24.821425},{"OpenDay0":"0","OpenDay1":"9-20","address":"Viirintie 9","city":"KLAUKKALA","postalCode":"01800","latitude":60.37803,"link":"https://www.alko.fi/tuotteet&#63;SearchParameter=%26%40QueryTerm%3D*%26OnlineFlag%3D1%26productInStore%3D2181&productInStore=2181&SelectedFilter=AvailabilityGroup&PageSize=1000","storeId":"2181","uuid":"EfHAqHilliIAAAFV3dowMkn1","outletTypeId":"outletType_myymalat","phone":"020 711 2181","name":"Alko Nurmijärvi Klaukkala Citymarket","longitude":24.758451},{"OpenDay0":"0","OpenDay1":"9-18","address":"Närpesvägen 8","city":"NÄRPIÖ","postalCode":"64200","latitude":62.476622,"link":"https://www.alko.fi/tuotteet&#63;SearchParameter=%26%40QueryTerm%3D*%26OnlineFlag%3D1%26productInStore%3D2290&productInStore=2290&SelectedFilter=AvailabilityGroup&PageSize=1000","storeId":"2290","uuid":"217AqHilCX8AAAFVp0QwMkn4","outletTypeId":"outletType_myymalat","phone":"020 711 2290","name":"Alko Närpiö","longitude":21.337672},{"OpenDay0":"0","OpenDay1":"9-18","address":"Erkontie 16","city":"ORIMATTILA","postalCode":"16300","latitude":60.805143,"link":"https://www.alko.fi/tuotteet&#63;SearchParameter=%26%40QueryTerm%3D*%26OnlineFlag%3D1%26productInStore%3D2427&productInStore=2427&SelectedFilter=AvailabilityGroup&PageSize=1000","storeId":"2427","uuid":"FYzAqHil4GkAAAFVCS8wMkn5","outletTypeId":"outletType_myymalat","phone":"020 711 2427","name":"Alko Orimattila","longitude":25.730748},{"OpenDay0":"0","OpenDay1":"9-20","address":"Keskustie 36","city":"ORIVESI","postalCode":"35300","latitude":61.678308,"link":"https://www.alko.fi/tuotteet&#63;SearchParameter=%26%40QueryTerm%3D*%26OnlineFlag%3D1%26productInStore%3D2453&productInStore=2453&SelectedFilter=AvailabilityGroup&PageSize=1000","storeId":"2453","uuid":"s93AqHilR5YAAAFVjYQwMkn5","outletTypeId":"outletType_myymalat","phone":"020 711 2453","name":"Alko Orivesi","longitude":24.357521},{"OpenDay0":"0","OpenDay1":"9-18","address":"Oulaistenkatu 15-17","city":"OULAINEN","postalCode":"86300","latitude":64.268537,"link":"https://www.alko.fi/tuotteet&#63;SearchParameter=%26%40QueryTerm%3D*%26OnlineFlag%3D1%26productInStore%3D2805&productInStore=2805&SelectedFilter=AvailabilityGroup&PageSize=1000","storeId":"2805","uuid":"NYXAqHilcAkAAAFVKdwwMkn8","outletTypeId":"outletType_myymalat","phone":"020 711 2805","name":"Alko Oulainen","longitude":24.828768},{"OpenDay0":"0","OpenDay1":"9-18","address":"Revontie 8","city":"HAUKIPUDAS","postalCode":"90830","latitude":65.176562,"link":"https://www.alko.fi/tuotteet&#63;SearchParameter=%26%40QueryTerm%3D*%26OnlineFlag%3D1%26productInStore%3D2836&productInStore=2836&SelectedFilter=AvailabilityGroup&PageSize=1000","storeId":"2836","uuid":"I0vAqHilimoAAAFVtYowMkn9","outletTypeId":"outletType_myymalat","phone":"020 711 2836","name":"Alko Oulu Haukipudas","longitude":25.349004},{"OpenDay0":"0","OpenDay1":"9-20","address":"Metsokankaantie 5","city":"OULU","postalCode":"90420","latitude":64.952565,"link":"https://www.alko.fi/tuotteet&#63;SearchParameter=%26%40QueryTerm%3D*%26OnlineFlag%3D1%26productInStore%3D2829&productInStore=2829&SelectedFilter=AvailabilityGroup&PageSize=1000","storeId":"2829","uuid":"GqrAqHilZesAAAFVfVwwMkn9","outletTypeId":"outletType_myymalat","phone":"020 711 2829","name":"Alko Oulu Kaakkuri","longitude":25.534825},{"OpenDay0":"0","OpenDay1":"9-20","address":"Kauppurienkatu 10","city":"OULU","postalCode":"90100","latitude":65.01214,"link":"https://www.alko.fi/tuotteet&#63;SearchParameter=%26%40QueryTerm%3D*%26OnlineFlag%3D1%26productInStore%3D2831&productInStore=2831&SelectedFilter=AvailabilityGroup&PageSize=1000","storeId":"2831","uuid":"iVrAqHilFFUAAAFVY2gwMkn9","outletTypeId":"outletType_myymalat","phone":"020 711 2831","name":"Alko Oulu Keskusta","longitude":25.468476},{"OpenDay0":"0","OpenDay1":"9-18","address":"Kauppareitti 2","city":"KIIMINKI","postalCode":"90900","latitude":65.12757,"link":"https://www.alko.fi/tuotteet&#63;SearchParameter=%26%40QueryTerm%3D*%26OnlineFlag%3D1%26productInStore%3D2838&productInStore=2838&SelectedFilter=AvailabilityGroup&PageSize=1000","storeId":"2838","uuid":"ORHAqHilbOQAAAFV35YwMkn9","outletTypeId":"outletType_myymalat","phone":"020 711 2838","name":"Alko Oulu Kiiminki","longitude":25.778904},{"OpenDay0":"0","OpenDay1":"9-20","address":"Nuottasaarentie 1","city":"OULU","postalCode":"90400","latitude":64.99404078,"link":"https://www.alko.fi/tuotteet&#63;SearchParameter=%26%40QueryTerm%3D*%26OnlineFlag%3D1%26productInStore%3D2833&productInStore=2833&SelectedFilter=AvailabilityGroup&PageSize=1000","storeId":"2833","uuid":"20_AqHil4Y8AAAFVcHgwMkn9","outletTypeId":"outletType_myymalat","phone":"020 711 2833","name":"Alko Oulu Limingantulli","longitude":25.46097159},{"OpenDay0":"0","OpenDay1":"9-20","address":"Kauppalinnankuja 1-3","city":"OULU","postalCode":"90570","latitude":65.054959,"link":"https://www.alko.fi/tuotteet&#63;SearchParameter=%26%40QueryTerm%3D*%26OnlineFlag%3D1%26productInStore%3D2830&productInStore=2830&SelectedFilter=AvailabilityGroup&PageSize=1000","storeId":"2830","uuid":"xNLAqHilXH4AAAFVomIwMkn9","outletTypeId":"outletType_myymalat","phone":"020 711 2830","name":"Alko Oulu Linnanmaa","longitude":25.457923},{"OpenDay0":"0","OpenDay1":"9-20","address":"Tehtaankatu 1","city":"OULU","postalCode":"90130","latitude":65.010463,"link":"https://www.alko.fi/tuotteet&#63;SearchParameter=%26%40QueryTerm%3D*%26OnlineFlag%3D1%26productInStore%3D2832&productInStore=2832&SelectedFilter=AvailabilityGroup&PageSize=1000","storeId":"2832","uuid":"ePbAqHilAI4AAAFVZXEwMkn9","outletTypeId":"outletType_myymalat","phone":"020 711 2832","name":"Alko Oulu Raksila","longitude":25.487853},{"OpenDay0":"0","OpenDay1":"9-20","address":"Revonkuja 2","city":"OULU","postalCode":"90530","latitude":65.030982,"link":"https://www.alko.fi/tuotteet&#63;SearchParameter=%26%40QueryTerm%3D*%26OnlineFlag%3D1%26productInStore%3D2834&productInStore=2834&SelectedFilter=AvailabilityGroup&PageSize=1000","storeId":"2834","uuid":"IsLAqHilSWIAAAFVNn4wMkn9","outletTypeId":"outletType_myymalat","phone":"020 711 2834","name":"Alko Oulu Välivainio","longitude":25.472193},{"OpenDay0":"0","OpenDay1":"9-18","address":"Kummunkatu 9","city":"OUTOKUMPU","postalCode":"83500","latitude":62.726603,"link":"https://www.alko.fi/tuotteet&#63;SearchParameter=%26%40QueryTerm%3D*%26OnlineFlag%3D1%26productInStore%3D2706&productInStore=2706&SelectedFilter=AvailabilityGroup&PageSize=1000","storeId":"2706","uuid":"RVjAqHilG_4AAAFViP0wMkn6","outletTypeId":"outletType_myymalat","phone":"020 711 2706","name":"Alko Outokumpu","longitude":29.013947},{"OpenDay0":"0","OpenDay1":"11-17","address":"Kauppatie 2","city":"PADASJOKI","postalCode":"17500","latitude":61.349178,"link":"https://www.alko.fi/tuotteet&#63;SearchParameter=%26%40QueryTerm%3D*%26OnlineFlag%3D1%26productInStore%3D2429&productInStore=2429&SelectedFilter=AvailabilityGroup&PageSize=1000","storeId":"2429","uuid":"9t3AqHiloJkAAAFVej0wMkn5","outletTypeId":"outletType_myymalat","phone":"020 711 2429","name":"Alko Padasjoki","longitude":25.265784},{"OpenDay0":"0","OpenDay1":"9-18","address":"Asematie 1","city":"PAIMIO","postalCode":"21530","latitude":60.457487,"link":"https://www.alko.fi/tuotteet&#63;SearchParameter=%26%40QueryTerm%3D*%26OnlineFlag%3D1%26productInStore%3D2217&productInStore=2217&SelectedFilter=AvailabilityGroup&PageSize=1000","storeId":"2217","uuid":"onXAqHil3jMAAAFVNI0wMkn2","outletTypeId":"outletType_myymalat","phone":"020 711 2217","name":"Alko Paimio","longitude":22.687921},{"OpenDay0":"0","OpenDay1":"10-18","address":"Rinnekuja 2","city":"PALTAMO","postalCode":"88300","latitude":64.403758,"link":"https://www.alko.fi/tuotteet&#63;SearchParameter=%26%40QueryTerm%3D*%26OnlineFlag%3D1%26productInStore%3D2826&productInStore=2826&SelectedFilter=AvailabilityGroup&PageSize=1000","storeId":"2826","uuid":"ENLAqHilYM4AAAFV_UkwMkn9","outletTypeId":"outletType_myymalat","phone":"020 711 2826","name":"Alko Paltamo","longitude":27.835359},{"OpenDay0":"0","OpenDay1":"11-16:30","address":"Kirkkomäki","city":"NAUVO","postalCode":"21660","latitude":60.192831,"link":"https://www.alko.fi/tuotteet&#63;SearchParameter=%26%40QueryTerm%3D*%26OnlineFlag%3D1%26productInStore%3D2228&productInStore=2228&SelectedFilter=AvailabilityGroup&PageSize=1000","storeId":"2228","uuid":"eOnAqHilZGwAAAFVIhEwMkn3","outletTypeId":"outletType_myymalat","phone":"020 711 2228","name":"Alko Parainen Nauvo","longitude":21.90989},{"OpenDay0":"0","OpenDay1":"9-18","address":"Kirkkoesplanadi 32","city":"PARAINEN","postalCode":"21600","latitude":60.309207,"link":"https://www.alko.fi/tuotteet&#63;SearchParameter=%26%40QueryTerm%3D*%26OnlineFlag%3D1%26productInStore%3D2227&productInStore=2227&SelectedFilter=AvailabilityGroup&PageSize=1000","storeId":"2227","uuid":"6T_AqHiliTwAAAFVgf0wMkn2","outletTypeId":"outletType_myymalat","phone":"020 711 2227","name":"Alko Parainen keskusta","longitude":22.308055},{"OpenDay0":"0","OpenDay1":"9-18","address":"Parikkalantie 19","city":"PARIKKALA","postalCode":"59100","latitude":61.55807557,"link":"https://www.alko.fi/tuotteet&#63;SearchParameter=%26%40QueryTerm%3D*%26OnlineFlag%3D1%26productInStore%3D2798&productInStore=2798&SelectedFilter=AvailabilityGroup&PageSize=1000","storeId":"2798","uuid":"w17AqHil7AkAAAFV9rMwMkn8","outletTypeId":"outletType_myymalat","phone":"020 711 2798","name":"Alko Parikkala","longitude":29.50083074},{"OpenDay0":"0","OpenDay1":"9-20","address":"Humalankatu 2","city":"PARKANO","postalCode":"39700","latitude":62.00683,"link":"https://www.alko.fi/tuotteet&#63;SearchParameter=%26%40QueryTerm%3D*%26OnlineFlag%3D1%26productInStore%3D2437&productInStore=2437&SelectedFilter=AvailabilityGroup&PageSize=1000","storeId":"2437","uuid":"C9rAqHilLEUAAAFVg1gwMkn5","outletTypeId":"outletType_myymalat","phone":"020 711 2437","name":"Alko Parkano","longitude":23.01125},{"OpenDay0":"0","OpenDay1":"9-18","address":"Pellontie 23","city":"PELLO","postalCode":"95700","latitude":66.773552,"link":"https://www.alko.fi/tuotteet&#63;SearchParameter=%26%40QueryTerm%3D*%26OnlineFlag%3D1%26productInStore%3D2877&productInStore=2877&SelectedFilter=AvailabilityGroup&PageSize=1000","storeId":"2877","uuid":"hvzAqHilnv4AAAFVvSYwMkn.","outletTypeId":"outletType_myymalat","phone":"020 711 2877","name":"Alko Pello","longitude":23.964842},{"OpenDay0":"0","OpenDay1":"9-20","address":"Mäyrätie 1","city":"KUORTTI","postalCode":"19410","latitude":61.421316,"link":"https://www.alko.fi/tuotteet&#63;SearchParameter=%26%40QueryTerm%3D*%26OnlineFlag%3D1%26productInStore%3D2730&productInStore=2730&SelectedFilter=AvailabilityGroup&PageSize=1000","storeId":"2730","uuid":"AFHAqHil0mcAAAFV53QwMkn7","outletTypeId":"outletType_myymalat","phone":"020 711 2730","name":"Alko Pertunmaa Kuortti","longitude":26.434038},{"OpenDay0":"0","OpenDay1":"9-20","address":"Keskuskatu 3","city":"PIEKSÄMÄKI","postalCode":"76100","latitude":62.30142125,"link":"https://www.alko.fi/tuotteet&#63;SearchParameter=%26%40QueryTerm%3D*%26OnlineFlag%3D1%26productInStore%3D2731&productInStore=2731&SelectedFilter=AvailabilityGroup&PageSize=1000","storeId":"2731","uuid":"AEXAqHilQOUAAAFVFXowMkn7","outletTypeId":"outletType_myymalat","phone":"020 711 2731","name":"Alko Pieksämäki","longitude":27.16178467},{"OpenDay0":"0","OpenDay1":"10-17","address":"Puustellintie 21","city":"PIELAVESI","postalCode":"72400","latitude":63.233559,"link":"https://www.alko.fi/tuotteet&#63;SearchParameter=%26%40QueryTerm%3D*%26OnlineFlag%3D1%26productInStore%3D2743&productInStore=2743&SelectedFilter=AvailabilityGroup&PageSize=1000","storeId":"2743","uuid":"u5bAqHilcRQAAAFV.q8wMkn7","outletTypeId":"outletType_myymalat","phone":"020 711 2743","name":"Alko Pielavesi","longitude":26.756019},{"OpenDay0":"0","OpenDay1":"9-20","address":"Koulukatu 4","city":"PIETARSAARI","postalCode":"68600","latitude":63.678039,"link":"https://www.alko.fi/tuotteet&#63;SearchParameter=%26%40QueryTerm%3D*%26OnlineFlag%3D1%26productInStore%3D2286&productInStore=2286&SelectedFilter=AvailabilityGroup&PageSize=1000","storeId":"2286","uuid":"EAnAqHilXccAAAFVZTEwMkn4","outletTypeId":"outletType_myymalat","phone":"020 711 2286","name":"Alko Pietarsaari","longitude":22.715981},{"OpenDay0":"0","OpenDay1":"9-18","address":"Asematie 1","city":"PIHTIPUDAS","postalCode":"44800","latitude":63.369671,"link":"https://www.alko.fi/tuotteet&#63;SearchParameter=%26%40QueryTerm%3D*%26OnlineFlag%3D1%26productInStore%3D2487&productInStore=2487&SelectedFilter=AvailabilityGroup&PageSize=1000","storeId":"2487","uuid":"3ULAqHilfxwAAAFVKGgwMkn6","outletTypeId":"outletType_myymalat","phone":"020 711 2487","name":"Alko Pihtipudas","longitude":25.585029},{"OpenDay0":"0","OpenDay1":"9-20","address":"Kenkätie 4","city":"PIRKKALA","postalCode":"33950","latitude":61.469506,"link":"https://www.alko.fi/tuotteet&#63;SearchParameter=%26%40QueryTerm%3D*%26OnlineFlag%3D1%26productInStore%3D2477&productInStore=2477&SelectedFilter=AvailabilityGroup&PageSize=1000","storeId":"2477","uuid":"TlXAqHilqugAAAFV_hQwMkn6","outletTypeId":"outletType_myymalat","phone":"020 711 2477","name":"Alko Pirkkala Partola","longitude":23.716786},{"OpenDay0":"0","OpenDay1":"9-20","address":"Suupantie 10","city":"PIRKKALA","postalCode":"33960","latitude":61.46598,"link":"https://www.alko.fi/tuotteet&#63;SearchParameter=%26%40QueryTerm%3D*%26OnlineFlag%3D1%26productInStore%3D2473&productInStore=2473&SelectedFilter=AvailabilityGroup&PageSize=1000","storeId":"2473","uuid":"S2jAqHilAdQAAAFVwe0wMkn5","outletTypeId":"outletType_myymalat","phone":"020 711 2473","name":"Alko Pirkkala keskusta","longitude":23.645459},{"OpenDay0":"0","OpenDay1":"9-20","address":"Eteläväylä 9","city":"PORI","postalCode":"28610","latitude":61.475409,"link":"https://www.alko.fi/tuotteet&#63;SearchParameter=%26%40QueryTerm%3D*%26OnlineFlag%3D1%26productInStore%3D2252&productInStore=2252&SelectedFilter=AvailabilityGroup&PageSize=1000","storeId":"2252","uuid":"xg_AqHil7JIAAAFVTGAwMkn3","outletTypeId":"outletType_myymalat","phone":"020 711 2252","name":"Alko Pori Eteläväylä","longitude":21.753121},{"OpenDay0":"0","OpenDay1":"9-20","address":"Itäkeskuksenkaari 6","city":"PORI","postalCode":"28130","latitude":61.454815,"link":"https://www.alko.fi/tuotteet&#63;SearchParameter=%26%40QueryTerm%3D*%26OnlineFlag%3D1%26productInStore%3D2254&productInStore=2254&SelectedFilter=AvailabilityGroup&PageSize=1000","storeId":"2254","uuid":"UYbAqHilQUoAAAFVX2kwMkn3","outletTypeId":"outletType_myymalat","phone":"020 711 2254","name":"Alko Pori Itäkeskus Prisma","longitude":21.840197},{"OpenDay0":"0","OpenDay1":"9-18","address":"Finpyyntie 10","city":"NOORMARKKU","postalCode":"29600","latitude":61.5958,"link":"https://www.alko.fi/tuotteet&#63;SearchParameter=%26%40QueryTerm%3D*%26OnlineFlag%3D1%26productInStore%3D2257&productInStore=2257&SelectedFilter=AvailabilityGroup&PageSize=1000","storeId":"2257","uuid":"Up_AqHilNBMAAAFVPn4wMkn3","outletTypeId":"outletType_myymalat","phone":"020 711 2257","name":"Alko Pori Noormarkku","longitude":21.865994},{"OpenDay0":"0","OpenDay1":"9-20","address":"Siltapuistokatu 14","city":"PORI","postalCode":"28100","latitude":61.49432388,"link":"https://www.alko.fi/tuotteet&#63;SearchParameter=%26%40QueryTerm%3D*%26OnlineFlag%3D1%26productInStore%3D2259&productInStore=2259&SelectedFilter=AvailabilityGroup&PageSize=1000","storeId":"2259","uuid":"iq3AqHilN5UAAAFVRYQwMkn3","outletTypeId":"outletType_myymalat","phone":"020 711 2259","name":"Alko Pori Puuvilla","longitude":21.8013752},{"OpenDay0":"0","OpenDay1":"9-20","address":"Liisankatu 2-4","city":"PORI","postalCode":"28100","latitude":61.48379478,"link":"https://www.alko.fi/tuotteet&#63;SearchParameter=%26%40QueryTerm%3D*%26OnlineFlag%3D1%26productInStore%3D2251&productInStore=2251&SelectedFilter=AvailabilityGroup&PageSize=1000","storeId":"2251","uuid":"IbjAqHilTGsAAAFVsVYwMkn3","outletTypeId":"outletType_myymalat","phone":"020 711 2251","name":"Alko Pori keskusta Sokos","longitude":21.79826199},{"OpenDay0":"0","OpenDay1":"9-20","address":"Aleksanterinkaari 1","city":"PORVOO","postalCode":"06100","latitude":60.387436,"link":"https://www.alko.fi/tuotteet&#63;SearchParameter=%26%40QueryTerm%3D*%26OnlineFlag%3D1%26productInStore%3D2190&productInStore=2190&SelectedFilter=AvailabilityGroup&PageSize=1000","storeId":"2190","uuid":"GbDAqHilx9wAAAFVrQ8wMkn2","outletTypeId":"outletType_myymalat","phone":"020 711 2190","name":"Alko Porvoo Näsi","longitude":25.651994},{"OpenDay0":"0","OpenDay1":"9-20","address":"Asentajantie 1","city":"PORVOO","postalCode":"06150","latitude":60.39948,"link":"https://www.alko.fi/tuotteet&#63;SearchParameter=%26%40QueryTerm%3D*%26OnlineFlag%3D1%26productInStore%3D2191&productInStore=2191&SelectedFilter=AvailabilityGroup&PageSize=1000","storeId":"2191","uuid":"turAqHilJ.MAAAFVlRUwMkn2","outletTypeId":"outletType_myymalat","phone":"020 711 2191","name":"Alko Porvoo Tarmola","longitude":25.685876},{"OpenDay0":"0","OpenDay1":"10-18","address":"Posiontie 49","city":"POSIO","postalCode":"97900","latitude":66.112341,"link":"https://www.alko.fi/tuotteet&#63;SearchParameter=%26%40QueryTerm%3D*%26OnlineFlag%3D1%26productInStore%3D2859&productInStore=2859&SelectedFilter=AvailabilityGroup&PageSize=1000","storeId":"2859","uuid":"CTnAqHilUvIAAAFVlAIwMkn.","outletTypeId":"outletType_myymalat","phone":"020 711 2859","name":"Alko Posio","longitude":28.157987},{"OpenDay0":"0","OpenDay1":"9-18","address":"Kauppatie 8","city":"PUDASJÄRVI","postalCode":"93100","latitude":65.360774,"link":"https://www.alko.fi/tuotteet&#63;SearchParameter=%26%40QueryTerm%3D*%26OnlineFlag%3D1%26productInStore%3D2843&productInStore=2843&SelectedFilter=AvailabilityGroup&PageSize=1000","storeId":"2843","uuid":"NFfAqHil9SIAAAFV4LAwMkn9","outletTypeId":"outletType_myymalat","phone":"020 711 2843","name":"Alko Pudasjärvi","longitude":26.995651},{"OpenDay0":"0","OpenDay1":"11-17","address":"Pulkkilantie 2 A","city":"PULKKILA","postalCode":"92600","latitude":64.265301,"link":"https://www.alko.fi/tuotteet&#63;SearchParameter=%26%40QueryTerm%3D*%26OnlineFlag%3D1%26productInStore%3D2808&productInStore=2808&SelectedFilter=AvailabilityGroup&PageSize=1000","storeId":"2808","uuid":"8iDAqHilFUgAAAFVmfAwMkn8","outletTypeId":"outletType_myymalat","phone":"020 711 2808","name":"Alko Pulkkila","longitude":25.865814},{"OpenDay0":"0","OpenDay1":"0","address":"Keskuskatu 2","city":"PUOLANKA","postalCode":"89200","latitude":64.869467,"link":"https://www.alko.fi/tuotteet&#63;SearchParameter=%26%40QueryTerm%3D*%26OnlineFlag%3D1%26productInStore%3D2827&productInStore=2827&SelectedFilter=AvailabilityGroup&PageSize=1000","storeId":"2827","uuid":"wo_AqHilcbgAAAFVZ1EwMkn9","outletTypeId":"outletType_myymalat","phone":"020 711 2827","name":"Alko Puolanka","longitude":27.665958},{"OpenDay0":"0","OpenDay1":"11:30-17","address":"Keskustie 19","city":"PUUMALA","postalCode":"52200","latitude":61.523938,"link":"https://www.alko.fi/tuotteet&#63;SearchParameter=%26%40QueryTerm%3D*%26OnlineFlag%3D1%26productInStore%3D2721&productInStore=2721&SelectedFilter=AvailabilityGroup&PageSize=1000","storeId":"2721","uuid":"MZ3AqHilC2IAAAFVbTowMkn7","outletTypeId":"outletType_myymalat","phone":"020 711 2721","name":"Alko Puumala","longitude":28.17756},{"OpenDay0":"0","OpenDay1":"9-18","address":"Antintie 3","city":"PYHÄSALMI","postalCode":"86800","latitude":63.6824,"link":"https://www.alko.fi/tuotteet&#63;SearchParameter=%26%40QueryTerm%3D*%26OnlineFlag%3D1%26productInStore%3D2809&productInStore=2809&SelectedFilter=AvailabilityGroup&PageSize=1000","storeId":"2809","uuid":"nSDAqHil.uYAAAFVYvgwMkn8","outletTypeId":"outletType_myymalat","phone":"020 711 2809","name":"Alko Pyhäjärvi","longitude":25.979426},{"OpenDay0":"0","OpenDay1":"9-20","address":"Ollinkalliontie 2","city":"RAAHE","postalCode":"92120","latitude":64.680272,"link":"https://www.alko.fi/tuotteet&#63;SearchParameter=%26%40QueryTerm%3D*%26OnlineFlag%3D1%26productInStore%3D2815&productInStore=2815&SelectedFilter=AvailabilityGroup&PageSize=1000","storeId":"2815","uuid":"f2LAqHilnLkAAAFVhRcwMkn9","outletTypeId":"outletType_myymalat","phone":"020 711 2815","name":"Alko Raahe","longitude":24.492469},{"OpenDay0":"0","OpenDay1":"9-20","address":"Ratakatu 59","city":"KARJAA","postalCode":"10300","latitude":60.07065,"link":"https://www.alko.fi/tuotteet&#63;SearchParameter=%26%40QueryTerm%3D*%26OnlineFlag%3D1%26productInStore%3D2175&productInStore=2175&SelectedFilter=AvailabilityGroup&PageSize=1000","storeId":"2175","uuid":"yTXAqHilGmkAAAFV17EwMkn1","outletTypeId":"outletType_myymalat","phone":"020 711 2175","name":"Alko Raasepori Karjaa","longitude":23.663103},{"OpenDay0":"0","OpenDay1":"9-20","address":"Rautatienkatu 5","city":"TAMMISAARI","postalCode":"10600","latitude":59.978465,"link":"https://www.alko.fi/tuotteet&#63;SearchParameter=%26%40QueryTerm%3D*%26OnlineFlag%3D1%26productInStore%3D2173&productInStore=2173&SelectedFilter=AvailabilityGroup&PageSize=1000","storeId":"2173","uuid":"EwXAqHilKPsAAAFVdKMwMkn1","outletTypeId":"outletType_myymalat","phone":"020 711 2173","name":"Alko Raasepori Tammisaari","longitude":23.441048},{"OpenDay0":"0","OpenDay1":"9-20","address":"Myllynkatu 1005","city":"RAISIO","postalCode":"21280","latitude":60.490139,"link":"https://www.alko.fi/tuotteet&#63;SearchParameter=%26%40QueryTerm%3D*%26OnlineFlag%3D1%26productInStore%3D2203&productInStore=2203&SelectedFilter=AvailabilityGroup&PageSize=1000","storeId":"2203","uuid":"NYnAqHilnGIAAAFVjTYwMkn2","outletTypeId":"outletType_myymalat","phone":"020 711 2203","name":"Alko Raisio Mylly","longitude":22.192296},{"OpenDay0":"0","OpenDay1":"9-20","address":"Voudinkatu 5","city":"RAISIO","postalCode":"21200","latitude":60.490045,"link":"https://www.alko.fi/tuotteet&#63;SearchParameter=%26%40QueryTerm%3D*%26OnlineFlag%3D1%26productInStore%3D2215&productInStore=2215&SelectedFilter=AvailabilityGroup&PageSize=1000","storeId":"2215","uuid":"mXfAqHilz0QAAAFVP4UwMkn2","outletTypeId":"outletType_myymalat","phone":"020 711 2215","name":"Alko Raisio keskusta","longitude":22.170569},{"OpenDay0":"0","OpenDay1":"11-17","address":"Kylätie 42-44","city":"RANTASALMI","postalCode":"58900","latitude":62.066787,"link":"https://www.alko.fi/tuotteet&#63;SearchParameter=%26%40QueryTerm%3D*%26OnlineFlag%3D1%26productInStore%3D2728&productInStore=2728&SelectedFilter=AvailabilityGroup&PageSize=1000","storeId":"2728","uuid":"kuTAqHilbWAAAAFV0GYwMkn7","outletTypeId":"outletType_myymalat","phone":"020 711 2728","name":"Alko Rantasalmi","longitude":28.300051},{"OpenDay0":"0","OpenDay1":"10-18","address":"Keskustie 1","city":"RANUA","postalCode":"97700","latitude":65.92762641,"link":"https://www.alko.fi/tuotteet&#63;SearchParameter=%26%40QueryTerm%3D*%26OnlineFlag%3D1%26productInStore%3D2858&productInStore=2858&SelectedFilter=AvailabilityGroup&PageSize=1000","storeId":"2858","uuid":"ls_AqHilW14AAAFVkPgwMkn9","outletTypeId":"outletType_myymalat","phone":"020 711 2858","name":"Alko Ranua","longitude":26.51620125},{"OpenDay0":"0","OpenDay1":"9-20","address":"Karjalankatu 5","city":"RAUMA","postalCode":"26100","latitude":61.132434,"link":"https://www.alko.fi/tuotteet&#63;SearchParameter=%26%40QueryTerm%3D*%26OnlineFlag%3D1%26productInStore%3D2265&productInStore=2265&SelectedFilter=AvailabilityGroup&PageSize=1000","storeId":"2265","uuid":"J.fAqHilygoAAAFVsKgwMkn3","outletTypeId":"outletType_myymalat","phone":"020 711 2265","name":"Alko Rauma keskusta","longitude":21.506763},{"OpenDay0":"0","OpenDay1":"9-20","address":"Äyhönjärventie 1","city":"RAUMA","postalCode":"26100","latitude":61.131881,"link":"https://www.alko.fi/tuotteet&#63;SearchParameter=%26%40QueryTerm%3D*%26OnlineFlag%3D1%26productInStore%3D2269&productInStore=2269&SelectedFilter=AvailabilityGroup&PageSize=1000","storeId":"2269","uuid":"J6jAqHilMZ0AAAFVUsMwMkn3","outletTypeId":"outletType_myymalat","phone":"020 711 2269","name":"Alko Rauma Äyhö","longitude":21.538096},{"OpenDay0":"0","OpenDay1":"9-20","address":"Voimalankatu 2","city":"RIIHIMÄKI","postalCode":"11130","latitude":60.732868,"link":"https://www.alko.fi/tuotteet&#63;SearchParameter=%26%40QueryTerm%3D*%26OnlineFlag%3D1%26productInStore%3D2408&productInStore=2408&SelectedFilter=AvailabilityGroup&PageSize=1000","storeId":"2408","uuid":"uGTAqHilUvYAAAFVPJswMkn4","outletTypeId":"outletType_myymalat","phone":"020 711 2408","name":"Alko Riihimäki Atomikortteli","longitude":24.779564},{"OpenDay0":"0","OpenDay1":"9-20","address":"Merkoksenkatu 5","city":"RIIHIMÄKI","postalCode":"11710","latitude":60.721974,"link":"https://www.alko.fi/tuotteet&#63;SearchParameter=%26%40QueryTerm%3D*%26OnlineFlag%3D1%26productInStore%3D2415&productInStore=2415&SelectedFilter=AvailabilityGroup&PageSize=1000","storeId":"2415","uuid":"cKbAqHil72QAAAFVWcIwMkn4","outletTypeId":"outletType_myymalat","phone":"020 711 2415","name":"Alko Riihimäki Merkos","longitude":24.734842},{"OpenDay0":"0","OpenDay1":"9-20","address":"Teollisuustie 1","city":"ROVANIEMI","postalCode":"96320","latitude":66.491446,"link":"https://www.alko.fi/tuotteet&#63;SearchParameter=%26%40QueryTerm%3D*%26OnlineFlag%3D1%26productInStore%3D2857&productInStore=2857&SelectedFilter=AvailabilityGroup&PageSize=1000","storeId":"2857","uuid":"RXLAqHilHlIAAAFVkO8wMkn9","outletTypeId":"outletType_myymalat","phone":"020 711 2857","name":"Alko Rovaniemi Eteläkeskus","longitude":25.691872},{"OpenDay0":"0","OpenDay1":"9-20","address":"Pulkamontie 1","city":"SAARENKYLÄ","postalCode":"96900","latitude":66.517509,"link":"https://www.alko.fi/tuotteet&#63;SearchParameter=%26%40QueryTerm%3D*%26OnlineFlag%3D1%26productInStore%3D2856&productInStore=2856&SelectedFilter=AvailabilityGroup&PageSize=1000","storeId":"2856","uuid":"hfDAqHilXxEAAAFVZugwMkn9","outletTypeId":"outletType_myymalat","phone":"020 711 2856","name":"Alko Rovaniemi Saarenkylä","longitude":25.7578},{"OpenDay0":"0","OpenDay1":"9-20","address":"Koskikatu 25","city":"ROVANIEMI","postalCode":"96200","latitude":66.503095,"link":"https://www.alko.fi/tuotteet&#63;SearchParameter=%26%40QueryTerm%3D*%26OnlineFlag%3D1%26productInStore%3D2855&productInStore=2855&SelectedFilter=AvailabilityGroup&PageSize=1000","storeId":"2855","uuid":"PxrAqHilCMMAAAFV7eEwMkn9","outletTypeId":"outletType_myymalat","phone":"020 711 2855","name":"Alko Rovaniemi keskusta","longitude":25.726452},{"OpenDay0":"0","OpenDay1":"10-17","address":"Ruovedentie 38","city":"RUOVESI","postalCode":"34600","latitude":61.98498,"link":"https://www.alko.fi/tuotteet&#63;SearchParameter=%26%40QueryTerm%3D*%26OnlineFlag%3D1%26productInStore%3D2481&productInStore=2481&SelectedFilter=AvailabilityGroup&PageSize=1000","storeId":"2481","uuid":"m9LAqHilY7UAAAFVVTQwMkn6","outletTypeId":"outletType_myymalat","phone":"020 711 2481","name":"Alko Ruovesi","longitude":24.071969},{"OpenDay0":"0","OpenDay1":"9-18","address":"Torikatu 5 a","city":"SAARIJÄRVI","postalCode":"43100","latitude":62.707346,"link":"https://www.alko.fi/tuotteet&#63;SearchParameter=%26%40QueryTerm%3D*%26OnlineFlag%3D1%26productInStore%3D2483&productInStore=2483&SelectedFilter=AvailabilityGroup&PageSize=1000","storeId":"2483","uuid":"9zvAqHile94AAAFVIlUwMkn6","outletTypeId":"outletType_myymalat","phone":"020 711 2483","name":"Alko Saarijärvi","longitude":25.257256},{"OpenDay0":"0","OpenDay1":"9-18","address":"Kuusamontie 9","city":"SALLA","postalCode":"98900","latitude":66.832076,"link":"https://www.alko.fi/tuotteet&#63;SearchParameter=%26%40QueryTerm%3D*%26OnlineFlag%3D1%26productInStore%3D2887&productInStore=2887&SelectedFilter=AvailabilityGroup&PageSize=1000","storeId":"2887","uuid":"yHbAqHilJP4AAAFViFwwMkn.","outletTypeId":"outletType_myymalat","phone":"020 711 2887","name":"Alko Salla","longitude":28.670251},{"OpenDay0":"0","OpenDay1":"9-20","address":"Prismantie 2","city":"HALIKKO","postalCode":"24800","latitude":60.393524,"link":"https://www.alko.fi/tuotteet&#63;SearchParameter=%26%40QueryTerm%3D*%26OnlineFlag%3D1%26productInStore%3D2232&productInStore=2232&SelectedFilter=AvailabilityGroup&PageSize=1000","storeId":"2232","uuid":"bAbAqHiloXcAAAFV_hwwMkn3","outletTypeId":"outletType_myymalat","phone":"020 711 2232","name":"Alko Salo Halikko","longitude":23.082953},{"OpenDay0":"0","OpenDay1":"9-20","address":"Hämeentie 24-30","city":"SALO","postalCode":"24240","latitude":60.390274,"link":"https://www.alko.fi/tuotteet&#63;SearchParameter=%26%40QueryTerm%3D*%26OnlineFlag%3D1%26productInStore%3D2231&productInStore=2231&SelectedFilter=AvailabilityGroup&PageSize=1000","storeId":"2231","uuid":"Gb_AqHil4BwAAAFVZxYwMkn3","outletTypeId":"outletType_myymalat","phone":"020 711 2231","name":"Alko Salo Keskusta","longitude":23.126447},{"OpenDay0":"0","OpenDay1":"9-18","address":"Haarlantie 21","city":"PERNIÖ","postalCode":"25500","latitude":60.205337,"link":"https://www.alko.fi/tuotteet&#63;SearchParameter=%26%40QueryTerm%3D*%26OnlineFlag%3D1%26productInStore%3D2234&productInStore=2234&SelectedFilter=AvailabilityGroup&PageSize=1000","storeId":"2234","uuid":"b6HAqHilfawAAAFVHCswMkn3","outletTypeId":"outletType_myymalat","phone":"020 711 2234","name":"Alko Salo Perniö","longitude":23.113334},{"OpenDay0":"0","OpenDay1":"9-18","address":"Torikatu 1","city":"SASTAMALA","postalCode":"38200","latitude":61.340629,"link":"https://www.alko.fi/tuotteet&#63;SearchParameter=%26%40QueryTerm%3D*%26OnlineFlag%3D1%26productInStore%3D2432&productInStore=2432&SelectedFilter=AvailabilityGroup&PageSize=1000","storeId":"2432","uuid":"_iPAqHilcwIAAAFV4EQwMkn5","outletTypeId":"outletType_myymalat","phone":"020 711 2432","name":"Alko Sastamala Vammala","longitude":22.909205},{"OpenDay0":"0","OpenDay1":"11-17","address":"Torikatu 6","city":"SAVITAIPALE","postalCode":"54800","latitude":61.197615,"link":"https://www.alko.fi/tuotteet&#63;SearchParameter=%26%40QueryTerm%3D*%26OnlineFlag%3D1%26productInStore%3D2797&productInStore=2797&SelectedFilter=AvailabilityGroup&PageSize=1000","storeId":"2797","uuid":"cYXAqHildwIAAAFVIKwwMkn8","outletTypeId":"outletType_myymalat","phone":"020 711 2797","name":"Alko Savitaipale","longitude":27.681354},{"OpenDay0":"0","OpenDay1":"11-17","address":"Puruvedentie 51","city":"KERIMÄKI","postalCode":"58200","latitude":61.911941,"link":"https://www.alko.fi/tuotteet&#63;SearchParameter=%26%40QueryTerm%3D*%26OnlineFlag%3D1%26productInStore%3D2729&productInStore=2729&SelectedFilter=AvailabilityGroup&PageSize=1000","storeId":"2729","uuid":"J0rAqHilxycAAAFVnG8wMkn7","outletTypeId":"outletType_myymalat","phone":"020 711 2729","name":"Alko Savonlinna Kerimäki","longitude":29.280315},{"OpenDay0":"0","OpenDay1":"9-20","address":"Nojanmaantie 15","city":"SAVONLINNA","postalCode":"57210","latitude":61.876619,"link":"https://www.alko.fi/tuotteet&#63;SearchParameter=%26%40QueryTerm%3D*%26OnlineFlag%3D1%26productInStore%3D2716&productInStore=2716&SelectedFilter=AvailabilityGroup&PageSize=1000","storeId":"2716","uuid":".6zAqHiladYAAAFVUigwMkn7","outletTypeId":"outletType_myymalat","phone":"020 711 2716","name":"Alko Savonlinna Nojanmaa Prisma","longitude":28.949751},{"OpenDay0":"0","OpenDay1":"9-20","address":"Olavinkatu 46","city":"SAVONLINNA","postalCode":"57100","latitude":61.8699188,"link":"https://www.alko.fi/tuotteet&#63;SearchParameter=%26%40QueryTerm%3D*%26OnlineFlag%3D1%26productInStore%3D2726&productInStore=2726&SelectedFilter=AvailabilityGroup&PageSize=1000","storeId":"2726","uuid":"MnfAqHilM3oAAAFVm1gwMkn7","outletTypeId":"outletType_myymalat","phone":"020 711 2726","name":"Alko Savonlinna keskusta","longitude":28.87941013},{"OpenDay0":"0","OpenDay1":"9-20","address":"Hyllykalliontie 2","city":"HYLLYKALLIO","postalCode":"60510","latitude":62.806148,"link":"https://www.alko.fi/tuotteet&#63;SearchParameter=%26%40QueryTerm%3D*%26OnlineFlag%3D1%26productInStore%3D2287&productInStore=2287&SelectedFilter=AvailabilityGroup&PageSize=1000","storeId":"2287","uuid":"EJ3AqHilMDAAAAFVTDgwMkn4","outletTypeId":"outletType_myymalat","phone":"020 711 2287","name":"Alko Seinäjoki Nurmo Prisma","longitude":22.876284},{"OpenDay0":"0","OpenDay1":"9-20","address":"Tehtaantie 5","city":"SEINÄJOKI","postalCode":"60100","latitude":62.789305,"link":"https://www.alko.fi/tuotteet&#63;SearchParameter=%26%40QueryTerm%3D*%26OnlineFlag%3D1%26productInStore%3D2289&productInStore=2289&SelectedFilter=AvailabilityGroup&PageSize=1000","storeId":"2289","uuid":"KyvAqHil_vgAAAFV9j4wMkn4","outletTypeId":"outletType_myymalat","phone":"020 711 2289","name":"Alko Seinäjoki Pohja Minimani","longitude":22.879984},{"OpenDay0":"0","OpenDay1":"9-20","address":"Puskantie 13","city":"SEINÄJOKI","postalCode":"60100","latitude":62.791914,"link":"https://www.alko.fi/tuotteet&#63;SearchParameter=%26%40QueryTerm%3D*%26OnlineFlag%3D1%26productInStore%3D2272&productInStore=2272&SelectedFilter=AvailabilityGroup&PageSize=1000","storeId":"2272","uuid":"TOPAqHila3EAAAFVeNcwMkn3","outletTypeId":"outletType_myymalat","phone":"020 711 2272","name":"Alko Seinäjoki keskusta K-Supermarket","longitude":22.833935},{"OpenDay0":"0","OpenDay1":"9-20","address":"Toritie 12","city":"SIILINJÄRVI","postalCode":"71800","latitude":63.074275,"link":"https://www.alko.fi/tuotteet&#63;SearchParameter=%26%40QueryTerm%3D*%26OnlineFlag%3D1%26productInStore%3D2745&productInStore=2745&SelectedFilter=AvailabilityGroup&PageSize=1000","storeId":"2745","uuid":"4kvAqHilJfgAAAFVC70wMkn7","outletTypeId":"outletType_myymalat","phone":"020 711 2745","name":"Alko Siilinjärvi","longitude":27.657723},{"OpenDay0":"0","OpenDay1":"9-20","address":"Kaskiniitynkuja 2","city":"SIPOO","postalCode":"04130","latitude":60.377014,"link":"https://www.alko.fi/tuotteet&#63;SearchParameter=%26%40QueryTerm%3D*%26OnlineFlag%3D1%26productInStore%3D2187&productInStore=2187&SelectedFilter=AvailabilityGroup&PageSize=1000","storeId":"2187","uuid":"xcjAqHilIdQAAAFV1ggwMkn2","outletTypeId":"outletType_myymalat","phone":"020 711 2187","name":"Alko Sipoo Nikkilä","longitude":25.271547},{"OpenDay0":"0","OpenDay1":"9-20","address":"Rautatiekuja 4","city":"SÖDERKULLA","postalCode":"01150","latitude":60.297758,"link":"https://www.alko.fi/tuotteet&#63;SearchParameter=%26%40QueryTerm%3D*%26OnlineFlag%3D1%26productInStore%3D2193&productInStore=2193&SelectedFilter=AvailabilityGroup&PageSize=1000","storeId":"2193","uuid":"THDAqHil.EwAAAFV1iIwMkn2","outletTypeId":"outletType_myymalat","phone":"020 711 2193","name":"Alko Sipoo Söderkulla","longitude":25.329402},{"OpenDay0":"0","OpenDay1":"9-18","address":"Haastajantie 1","city":"SODANKYLÄ","postalCode":"99600","latitude":67.413967,"link":"https://www.alko.fi/tuotteet&#63;SearchParameter=%26%40QueryTerm%3D*%26OnlineFlag%3D1%26productInStore%3D2853&productInStore=2853&SelectedFilter=AvailabilityGroup&PageSize=1000","storeId":"2853","uuid":"MS3AqHilNG4AAAFVJN0wMkn9","outletTypeId":"outletType_myymalat","phone":"020 711 2853","name":"Alko Sodankylä","longitude":26.585427},{"OpenDay0":"0","OpenDay1":"9-18","address":"Turuntie 6","city":"SOMERO","postalCode":"31400","latitude":60.633175,"link":"https://www.alko.fi/tuotteet&#63;SearchParameter=%26%40QueryTerm%3D*%26OnlineFlag%3D1%26productInStore%3D2233&productInStore=2233&SelectedFilter=AvailabilityGroup&PageSize=1000","storeId":"2233","uuid":"pq_AqHilmqMAAAFVoyMwMkn3","outletTypeId":"outletType_myymalat","phone":"020 711 2233","name":"Alko Somero","longitude":23.512991},{"OpenDay0":"0","OpenDay1":"9-18","address":"Kainuuntie 18","city":"SOTKAMO","postalCode":"88600","latitude":64.130616,"link":"https://www.alko.fi/tuotteet&#63;SearchParameter=%26%40QueryTerm%3D*%26OnlineFlag%3D1%26productInStore%3D2822&productInStore=2822&SelectedFilter=AvailabilityGroup&PageSize=1000","storeId":"2822","uuid":"8zjAqHilPDQAAAFVqi4wMkn9","outletTypeId":"outletType_myymalat","phone":"020 711 2822","name":"Alko Sotkamo","longitude":28.383809},{"OpenDay0":"0","OpenDay1":"11:30-17","address":"Alanteentie 38","city":"SULKAVA","postalCode":"58700","latitude":61.787281,"link":"https://www.alko.fi/tuotteet&#63;SearchParameter=%26%40QueryTerm%3D*%26OnlineFlag%3D1%26productInStore%3D2738&productInStore=2738&SelectedFilter=AvailabilityGroup&PageSize=1000","storeId":"2738","uuid":".5vAqHilny8AAAFVuJMwMkn7","outletTypeId":"outletType_myymalat","phone":"020 711 2738","name":"Alko Sulkava","longitude":28.371237},{"OpenDay0":"0","OpenDay1":"9-18","address":"Risteentie 12","city":"SUOMUSSALMI","postalCode":"89600","latitude":64.8873,"link":"https://www.alko.fi/tuotteet&#63;SearchParameter=%26%40QueryTerm%3D*%26OnlineFlag%3D1%26productInStore%3D2828&productInStore=2828&SelectedFilter=AvailabilityGroup&PageSize=1000","storeId":"2828","uuid":"AwfAqHilHEkAAAFVdVYwMkn9","outletTypeId":"outletType_myymalat","phone":"020 711 2828","name":"Alko Suomussalmi","longitude":28.9083},{"OpenDay0":"0","OpenDay1":"9-18","address":"Rautalammintie 15","city":"SUONENJOKI","postalCode":"77600","latitude":62.625775,"link":"https://www.alko.fi/tuotteet&#63;SearchParameter=%26%40QueryTerm%3D*%26OnlineFlag%3D1%26productInStore%3D2756&productInStore=2756&SelectedFilter=AvailabilityGroup&PageSize=1000","storeId":"2756","uuid":"wOHAqHili_QAAAFVLfowMkn7","outletTypeId":"outletType_myymalat","phone":"020 711 2756","name":"Alko Suonenjoki","longitude":27.119036},{"OpenDay0":"0","OpenDay1":"9-18","address":"Särkilahdentie 3","city":"SYSMÄ","postalCode":"19700","latitude":61.502352,"link":"https://www.alko.fi/tuotteet&#63;SearchParameter=%26%40QueryTerm%3D*%26OnlineFlag%3D1%26productInStore%3D2416&productInStore=2416&SelectedFilter=AvailabilityGroup&PageSize=1000","storeId":"2416","uuid":"hRXAqHilu7gAAAFV.8owMkn4","outletTypeId":"outletType_myymalat","phone":"020 711 2416","name":"Alko Sysmä","longitude":25.681952},{"OpenDay0":"0","OpenDay1":"9-18","address":"Palomiehentie 9","city":"SÄKYLÄ","postalCode":"27800","latitude":61.044795,"link":"https://www.alko.fi/tuotteet&#63;SearchParameter=%26%40QueryTerm%3D*%26OnlineFlag%3D1%26productInStore%3D2263&productInStore=2263&SelectedFilter=AvailabilityGroup&PageSize=1000","storeId":"2263","uuid":"H9_AqHilytAAAAFVK5YwMkn3","outletTypeId":"outletType_myymalat","phone":"020 711 2263","name":"Alko Säkylä","longitude":22.356346},{"OpenDay0":"0","OpenDay1":"10-18","address":"Kauppatie 11","city":"TAIVALKOSKI","postalCode":"93400","latitude":65.574952,"link":"https://www.alko.fi/tuotteet&#63;SearchParameter=%26%40QueryTerm%3D*%26OnlineFlag%3D1%26productInStore%3D2847&productInStore=2847&SelectedFilter=AvailabilityGroup&PageSize=1000","storeId":"2847","uuid":"LQfAqHilSMkAAAFVJ8IwMkn9","outletTypeId":"outletType_myymalat","phone":"020 711 2847","name":"Alko Taivalkoski","longitude":28.243856},{"OpenDay0":"0","OpenDay1":"9-20","address":"Pietilänkatu 2","city":"TAMPERE","postalCode":"33720","latitude":61.450919,"link":"https://www.alko.fi/tuotteet&#63;SearchParameter=%26%40QueryTerm%3D*%26OnlineFlag%3D1%26productInStore%3D2470&productInStore=2470&SelectedFilter=AvailabilityGroup&PageSize=1000","storeId":"2470","uuid":"vALAqHilM9EAAAFV4tgwMkn5","outletTypeId":"outletType_myymalat","phone":"020 711 2470","name":"Alko Tampere Hervanta Duo","longitude":23.852381},{"OpenDay0":"0","OpenDay1":"9-20","address":"Sammonkatu 75","city":"TAMPERE","postalCode":"33540","latitude":61.490425,"link":"https://www.alko.fi/tuotteet&#63;SearchParameter=%26%40QueryTerm%3D*%26OnlineFlag%3D1%26productInStore%3D2463&productInStore=2463&SelectedFilter=AvailabilityGroup&PageSize=1000","storeId":"2463","uuid":".fbAqHilPaMAAAFV.q0wMkn5","outletTypeId":"outletType_myymalat","phone":"020 711 2463","name":"Alko Tampere Kaleva Prisma","longitude":23.821406},{"OpenDay0":"0","OpenDay1":"9-20","address":"Lempääläntie 21","city":"TAMPERE","postalCode":"33820","latitude":61.468038,"link":"https://www.alko.fi/tuotteet&#63;SearchParameter=%26%40QueryTerm%3D*%26OnlineFlag%3D1%26productInStore%3D2466&productInStore=2466&SelectedFilter=AvailabilityGroup&PageSize=1000","storeId":"2466","uuid":"d.PAqHilF5MAAAFVVcAwMkn5","outletTypeId":"outletType_myymalat","phone":"020 711 2466","name":"Alko Tampere Koivistonkylä Prisma","longitude":23.776962},{"OpenDay0":"0","OpenDay1":"9-20","address":"Harjuntausta 7","city":"TAMPERE","postalCode":"33400","latitude":61.51469,"link":"https://www.alko.fi/tuotteet&#63;SearchParameter=%26%40QueryTerm%3D*%26OnlineFlag%3D1%26productInStore%3D2471&productInStore=2471&SelectedFilter=AvailabilityGroup&PageSize=1000","storeId":"2471","uuid":"gSzAqHilFgwAAAFVJd8wMkn5","outletTypeId":"outletType_myymalat","phone":"020 711 2471","name":"Alko Tampere Lielahti Citymarket","longitude":23.669295},{"OpenDay0":"0","OpenDay1":"9-20","address":"Liikekatu 3","city":"TAMPERE","postalCode":"33580","latitude":61.495491,"link":"https://www.alko.fi/tuotteet&#63;SearchParameter=%26%40QueryTerm%3D*%26OnlineFlag%3D1%26productInStore%3D2468&productInStore=2468&SelectedFilter=AvailabilityGroup&PageSize=1000","storeId":"2468","uuid":"4l3AqHilDCIAAAFVrswwMkn5","outletTypeId":"outletType_myymalat","phone":"020 711 2468","name":"Alko Tampere Linnainmaa Prisma","longitude":23.881404},{"OpenDay0":"0","OpenDay1":"9-20","address":"Puutarhakatu 10","city":"TAMPERE","postalCode":"33210","latitude":61.499225,"link":"https://www.alko.fi/tuotteet&#63;SearchParameter=%26%40QueryTerm%3D*%26OnlineFlag%3D1%26productInStore%3D2461&productInStore=2461&SelectedFilter=AvailabilityGroup&PageSize=1000","storeId":"2461","uuid":"BUPAqHilcNEAAAFVt50wMkn5","outletTypeId":"outletType_myymalat","phone":"020 711 2461","name":"Alko Tampere Puutarhakatu","longitude":23.756124},{"OpenDay0":"0","OpenDay1":"9-20","address":"Hämeenkatu 21","city":"TAMPERE","postalCode":"33200","latitude":61.497127,"link":"https://www.alko.fi/tuotteet&#63;SearchParameter=%26%40QueryTerm%3D*%26OnlineFlag%3D1%26productInStore%3D2464&productInStore=2464&SelectedFilter=AvailabilityGroup&PageSize=1000","storeId":"2464","uuid":"_bbAqHilsxkAAAFVNbQwMkn5","outletTypeId":"outletType_myymalat","phone":"020 711 2464","name":"Alko Tampere Sokos","longitude":23.758166},{"OpenDay0":"0","OpenDay1":"9-20","address":"Hämeenkatu 4","city":"TAMPERE","postalCode":"33100","latitude":61.498786,"link":"https://www.alko.fi/tuotteet&#63;SearchParameter=%26%40QueryTerm%3D*%26OnlineFlag%3D1%26productInStore%3D2462&productInStore=2462&SelectedFilter=AvailabilityGroup&PageSize=1000","storeId":"2462","uuid":"LRzAqHilbv8AAAFVoacwMkn5","outletTypeId":"outletType_myymalat","phone":"020 711 2462","name":"Alko Tampere Stockmann","longitude":23.770475},{"OpenDay0":"0","OpenDay1":"9-20","address":"Kullervonkatu 9","city":"TAMPERE","postalCode":"33100","latitude":61.503191,"link":"https://www.alko.fi/tuotteet&#63;SearchParameter=%26%40QueryTerm%3D*%26OnlineFlag%3D1%26productInStore%3D2465&productInStore=2465&SelectedFilter=AvailabilityGroup&PageSize=1000","storeId":"2465","uuid":"tc_AqHil11YAAAFVl7owMkn5","outletTypeId":"outletType_myymalat","phone":"020 711 2465","name":"Alko Tampere Tammela","longitude":23.778285},{"OpenDay0":"0","OpenDay1":"9-20","address":"Martinpojankatu 4","city":"TAMPERE","postalCode":"33710","latitude":61.476455,"link":"https://www.alko.fi/tuotteet&#63;SearchParameter=%26%40QueryTerm%3D*%26OnlineFlag%3D1%26productInStore%3D2472&productInStore=2472&SelectedFilter=AvailabilityGroup&PageSize=1000","storeId":"2472","uuid":"253AqHilnR8AAAFVAeYwMkn5","outletTypeId":"outletType_myymalat","phone":"020 711 2472","name":"Alko Tampere Turtola Citymarket","longitude":23.838976},{"OpenDay0":"0","OpenDay1":"11:30-17:30","address":"Mikkiläntie 12","city":"TEUVA","postalCode":"64700","latitude":62.487718,"link":"https://www.alko.fi/tuotteet&#63;SearchParameter=%26%40QueryTerm%3D*%26OnlineFlag%3D1%26productInStore%3D2285&productInStore=2285&SelectedFilter=AvailabilityGroup&PageSize=1000","storeId":"2285","uuid":"fpbAqHil5rEAAAFV1yowMkn4","outletTypeId":"outletType_myymalat","phone":"020 711 2285","name":"Alko Teuva","longitude":21.739226},{"OpenDay0":"0","OpenDay1":"9-20","address":"Länsiranta 10 as 1320","city":"TORNIO","postalCode":"95400","latitude":65.84385,"link":"https://www.alko.fi/tuotteet&#63;SearchParameter=%26%40QueryTerm%3D*%26OnlineFlag%3D1%26productInStore%3D2875&productInStore=2875&SelectedFilter=AvailabilityGroup&PageSize=1000","storeId":"2875","uuid":"_J7AqHilXKUAAAFVexYwMkn.","outletTypeId":"outletType_myymalat","phone":"020 711 2875","name":"Alko Tornio","longitude":24.143978},{"OpenDay0":"0","OpenDay1":"9-20","address":"Vanha Kakskerrantie 1","city":"TURKU","postalCode":"20900","latitude":60.417817,"link":"https://www.alko.fi/tuotteet&#63;SearchParameter=%26%40QueryTerm%3D*%26OnlineFlag%3D1%26productInStore%3D2213&productInStore=2213&SelectedFilter=AvailabilityGroup&PageSize=1000","storeId":"2213","uuid":"AsLAqHilb4UAAAFVH3UwMkn2","outletTypeId":"outletType_myymalat","phone":"020 711 2213","name":"Alko Turku Hirvensalo","longitude":22.229346},{"OpenDay0":"0","OpenDay1":"9-20","address":"Kalevantie 41","city":"TURKU","postalCode":"20520","latitude":60.445722,"link":"https://www.alko.fi/tuotteet&#63;SearchParameter=%26%40QueryTerm%3D*%26OnlineFlag%3D1%26productInStore%3D2202&productInStore=2202&SelectedFilter=AvailabilityGroup&PageSize=1000","storeId":"2202","uuid":"c.nAqHilXZYAAAFVPS8wMkn2","outletTypeId":"outletType_myymalat","phone":"020 711 2202","name":"Alko Turku Itäharju","longitude":22.326498},{"OpenDay0":"0","OpenDay1":"9-20","address":"Uudenmaantie 17","city":"TURKU","postalCode":"20700","latitude":60.443938,"link":"https://www.alko.fi/tuotteet&#63;SearchParameter=%26%40QueryTerm%3D*%26OnlineFlag%3D1%26productInStore%3D2204&productInStore=2204&SelectedFilter=AvailabilityGroup&PageSize=1000","storeId":"2204","uuid":"l0DAqHilDKIAAAFVGj4wMkn2","outletTypeId":"outletType_myymalat","phone":"020 711 2204","name":"Alko Turku Kupittaa","longitude":22.286141},{"OpenDay0":"0","OpenDay1":"9-20","address":"Markulantie 150","city":"TURKU","postalCode":"20320","latitude":60.47357,"link":"https://www.alko.fi/tuotteet&#63;SearchParameter=%26%40QueryTerm%3D*%26OnlineFlag%3D1%26productInStore%3D2207&productInStore=2207&SelectedFilter=AvailabilityGroup&PageSize=1000","storeId":"2207","uuid":"GjfAqHilzUAAAAFVIVgwMkn2","outletTypeId":"outletType_myymalat","phone":"020 711 2207","name":"Alko Turku Länsikeskus Citymarket","longitude":22.232602},{"OpenDay0":"0","OpenDay1":"9-20","address":"Pitkämäenkatu 4","city":"TURKU","postalCode":"20250","latitude":60.457427,"link":"https://www.alko.fi/tuotteet&#63;SearchParameter=%26%40QueryTerm%3D*%26OnlineFlag%3D1%26productInStore%3D2205&productInStore=2205&SelectedFilter=AvailabilityGroup&PageSize=1000","storeId":"2205","uuid":"ns7AqHilixgAAAFVHkgwMkn2","outletTypeId":"outletType_myymalat","phone":"020 711 2205","name":"Alko Turku Manhattan","longitude":22.235484},{"OpenDay0":"0","OpenDay1":"9-20","address":"Skanssinkatu 10","city":"TURKU","postalCode":"20730","latitude":60.429156,"link":"https://www.alko.fi/tuotteet&#63;SearchParameter=%26%40QueryTerm%3D*%26OnlineFlag%3D1%26productInStore%3D2209&productInStore=2209&SelectedFilter=AvailabilityGroup&PageSize=1000","storeId":"2209","uuid":"MHLAqHilM2gAAAFVX2QwMkn2","outletTypeId":"outletType_myymalat","phone":"020 711 2209","name":"Alko Turku Skanssi","longitude":22.324808},{"OpenDay0":"0","OpenDay1":"9-20","address":"Vanha Tampereentie 108","city":"TURKU","postalCode":"20300","latitude":60.472653,"link":"https://www.alko.fi/tuotteet&#63;SearchParameter=%26%40QueryTerm%3D*%26OnlineFlag%3D1%26productInStore%3D2214&productInStore=2214&SelectedFilter=AvailabilityGroup&PageSize=1000","storeId":"2214","uuid":"phDAqHilp64AAAFVDH4wMkn2","outletTypeId":"outletType_myymalat","phone":"020 711 2214","name":"Alko Turku Tampereentie","longitude":22.286593},{"OpenDay0":"0","OpenDay1":"9-18","address":"Eerikinkatu 16 H","city":"TURKU","postalCode":"20100","latitude":60.449795,"link":"https://www.alko.fi/tuotteet&#63;SearchParameter=%26%40QueryTerm%3D*%26OnlineFlag%3D1%26productInStore%3D2201&productInStore=2201&SelectedFilter=AvailabilityGroup&PageSize=1000","storeId":"2201","uuid":"xBLAqHilB9MAAAFVXikwMkn2","outletTypeId":"outletType_myymalat","phone":"020 711 2201","name":"Alko Turku keskusta Kauppahalli","longitude":22.265998},{"OpenDay0":"0","OpenDay1":"9-20","address":"Yliopistonkatu 22","city":"TURKU","postalCode":"20100","latitude":60.450881,"link":"https://www.alko.fi/tuotteet&#63;SearchParameter=%26%40QueryTerm%3D*%26OnlineFlag%3D1%26productInStore%3D2208&productInStore=2208&SelectedFilter=AvailabilityGroup&PageSize=1000","storeId":"2208","uuid":"eWvAqHilk1MAAAFVJF4wMkn2","outletTypeId":"outletType_myymalat","phone":"020 711 2208","name":"Alko Turku keskusta Stockmann","longitude":22.262909},{"OpenDay0":"0","OpenDay1":"9-20","address":"Kauppiaskatu 9","city":"TURKU","postalCode":"20100","latitude":60.452502,"link":"https://www.alko.fi/tuotteet&#63;SearchParameter=%26%40QueryTerm%3D*%26OnlineFlag%3D1%26productInStore%3D2206&productInStore=2206&SelectedFilter=AvailabilityGroup&PageSize=1000","storeId":"2206","uuid":"trzAqHilNq0AAAFVo1AwMkn2","outletTypeId":"outletType_myymalat","phone":"020 711 2206","name":"Alko Turku keskusta Wiklund","longitude":22.267278},{"OpenDay0":"0","OpenDay1":"9-20","address":"Hyrylänkatu 6","city":"TUUSULA","postalCode":"04300","latitude":60.397794,"link":"https://www.alko.fi/tuotteet&#63;SearchParameter=%26%40QueryTerm%3D*%26OnlineFlag%3D1%26productInStore%3D2170&productInStore=2170&SelectedFilter=AvailabilityGroup&PageSize=1000","storeId":"2170","uuid":"5nvAqHilZfQAAAFVPokwMkn1","outletTypeId":"outletType_myymalat","phone":"020 711 2170","name":"Alko Tuusula Hyrylä","longitude":25.020038},{"OpenDay0":"0","OpenDay1":"9-18","address":"Vanha Helsingintie 4","city":"ULVILA","postalCode":"28400","latitude":61.42714,"link":"https://www.alko.fi/tuotteet&#63;SearchParameter=%26%40QueryTerm%3D*%26OnlineFlag%3D1%26productInStore%3D2256&productInStore=2256&SelectedFilter=AvailabilityGroup&PageSize=1000","storeId":"2256","uuid":"Gc7AqHilXgEAAAFVI3UwMkn3","outletTypeId":"outletType_myymalat","phone":"020 711 2256","name":"Alko Ulvila","longitude":21.876517},{"OpenDay0":"0","OpenDay1":"9-18","address":"Tampereentie 1","city":"URJALA","postalCode":"31760","latitude":61.080473,"link":"https://www.alko.fi/tuotteet&#63;SearchParameter=%26%40QueryTerm%3D*%26OnlineFlag%3D1%26productInStore%3D2441&productInStore=2441&SelectedFilter=AvailabilityGroup&PageSize=1000","storeId":"2441","uuid":"XJ3AqHilS8gAAAFVIXEwMkn5","outletTypeId":"outletType_myymalat","phone":"020 711 2441","name":"Alko Urjala","longitude":23.549621},{"OpenDay0":"0","OpenDay1":"11-18","address":"Ylätenontie 24","city":"KARIGASNIEMI","postalCode":"99950","latitude":69.39858508,"link":"https://www.alko.fi/tuotteet&#63;SearchParameter=%26%40QueryTerm%3D*%26OnlineFlag%3D1%26productInStore%3D2883&productInStore=2883&SelectedFilter=AvailabilityGroup&PageSize=1000","storeId":"2883","uuid":"xizAqHilzdAAAAFVtFEwMkn.","outletTypeId":"outletType_myymalat","phone":"020 711 2883","name":"Alko Utsjoki Karigasniemi","longitude":25.85193962},{"OpenDay0":"0","OpenDay1":"10-18","address":"Nuorgamintie 4298","city":"NUORGAM","postalCode":"99990","latitude":70.080733,"link":"https://www.alko.fi/tuotteet&#63;SearchParameter=%26%40QueryTerm%3D*%26OnlineFlag%3D1%26productInStore%3D2889&productInStore=2889&SelectedFilter=AvailabilityGroup&PageSize=1000","storeId":"2889","uuid":"DizAqHilTZcAAAFVFmowMkn.","outletTypeId":"outletType_myymalat","phone":"020 711 2889","name":"Alko Utsjoki Nuorgam","longitude":27.86485},{"OpenDay0":"0","OpenDay1":"9-18","address":"Myllytie 24","city":"UUSIKAARLEPYY","postalCode":"66900","latitude":63.529546,"link":"https://www.alko.fi/tuotteet&#63;SearchParameter=%26%40QueryTerm%3D*%26OnlineFlag%3D1%26productInStore%3D2284&productInStore=2284&SelectedFilter=AvailabilityGroup&PageSize=1000","storeId":"2284","uuid":"7BHAqHilhEEAAAFVdSMwMkn4","outletTypeId":"outletType_myymalat","phone":"020 711 2284","name":"Alko Uusikaarlepyy","longitude":22.539467},{"OpenDay0":"0","OpenDay1":"9-18","address":"Rantakatu 25","city":"UUSIKAUPUNKI","postalCode":"23500","latitude":60.799447,"link":"https://www.alko.fi/tuotteet&#63;SearchParameter=%26%40QueryTerm%3D*%26OnlineFlag%3D1%26productInStore%3D2221&productInStore=2221&SelectedFilter=AvailabilityGroup&PageSize=1000","storeId":"2221","uuid":"psfAqHilRPwAAAFVgrUwMkn2","outletTypeId":"outletType_myymalat","phone":"020 711 2221","name":"Alko Uusikaupunki","longitude":21.412841},{"OpenDay0":"0","OpenDay1":"9-18","address":"Vaalantie 26","city":"VAALA","postalCode":"91700","latitude":64.560545,"link":"https://www.alko.fi/tuotteet&#63;SearchParameter=%26%40QueryTerm%3D*%26OnlineFlag%3D1%26productInStore%3D2841&productInStore=2841&SelectedFilter=AvailabilityGroup&PageSize=1000","storeId":"2841","uuid":"6njAqHil3UMAAAFVdakwMkn9","outletTypeId":"outletType_myymalat","phone":"020 711 2841","name":"Alko Vaala","longitude":26.843812},{"OpenDay0":"0","OpenDay1":"9-20","address":"Jukolantie 1","city":"VAASA","postalCode":"65300","latitude":63.101757,"link":"https://www.alko.fi/tuotteet&#63;SearchParameter=%26%40QueryTerm%3D*%26OnlineFlag%3D1%26productInStore%3D2292&productInStore=2292&SelectedFilter=AvailabilityGroup&PageSize=1000","storeId":"2292","uuid":"PEHAqHil6RIAAAFVfFMwMkn4","outletTypeId":"outletType_myymalat","phone":"020 711 2292","name":"Alko Vaasa Asevelikylä Prisma","longitude":21.646878},{"OpenDay0":"0","OpenDay1":"9-20","address":"Kokkokalliontie 2-6","city":"VAASA","postalCode":"65300","latitude":63.108279,"link":"https://www.alko.fi/tuotteet&#63;SearchParameter=%26%40QueryTerm%3D*%26OnlineFlag%3D1%26productInStore%3D2293&productInStore=2293&SelectedFilter=AvailabilityGroup&PageSize=1000","storeId":"2293","uuid":"LjjAqHiluk8AAAFVdl0wMkn4","outletTypeId":"outletType_myymalat","phone":"020 711 2293","name":"Alko Vaasa Kivihaka Citymarket","longitude":21.65189},{"OpenDay0":"0","OpenDay1":"9-20","address":"Hovioikeudenpuistikko 17","city":"VAASA","postalCode":"65100","latitude":63.09691,"link":"https://www.alko.fi/tuotteet&#63;SearchParameter=%26%40QueryTerm%3D*%26OnlineFlag%3D1%26productInStore%3D2291&productInStore=2291&SelectedFilter=AvailabilityGroup&PageSize=1000","storeId":"2291","uuid":"ETPAqHilkMgAAAFVDkowMkn4","outletTypeId":"outletType_myymalat","phone":"020 711 2291","name":"Alko Vaasa keskusta Citymarket","longitude":21.616364},{"OpenDay0":"0","OpenDay1":"9-20","address":"Valtakatu 9-11","city":"VALKEAKOSKI","postalCode":"37600","latitude":61.266482,"link":"https://www.alko.fi/tuotteet&#63;SearchParameter=%26%40QueryTerm%3D*%26OnlineFlag%3D1%26productInStore%3D2442&productInStore=2442&SelectedFilter=AvailabilityGroup&PageSize=1000","storeId":"2442","uuid":"_vDAqHil4RUAAAFVunYwMkn5","outletTypeId":"outletType_myymalat","phone":"020 711 2442","name":"Alko Valkeakoski","longitude":24.029415},{"OpenDay0":"0","OpenDay1":"9-20","address":"Ainontie 1","city":"VANTAA","postalCode":"01630","latitude":60.272377,"link":"https://www.alko.fi/tuotteet&#63;SearchParameter=%26%40QueryTerm%3D*%26OnlineFlag%3D1%26productInStore%3D2166&productInStore=2166&SelectedFilter=AvailabilityGroup&PageSize=1000","storeId":"2166","uuid":"7s7AqHil3X0AAAFVlXQwMkn1","outletTypeId":"outletType_myymalat","phone":"020 692 771","name":"Alko Vantaa Hämeenkylä","longitude":24.801821},{"OpenDay0":"0","OpenDay1":"9-20","address":"Ojalehdonkuja 1","city":"VANTAA","postalCode":"01400","latitude":60.324255,"link":"https://www.alko.fi/tuotteet&#63;SearchParameter=%26%40QueryTerm%3D*%26OnlineFlag%3D1%26productInStore%3D2172&productInStore=2172&SelectedFilter=AvailabilityGroup&PageSize=1000","storeId":"2172","uuid":"WtjAqHilKVQAAAFV7ZcwMkn1","outletTypeId":"outletType_myymalat","phone":"020 692 771","name":"Alko Vantaa Koivukylä Citymarket","longitude":25.058258},{"OpenDay0":"0","OpenDay1":"9-20","address":"Minkkikuja 4","city":"VANTAA","postalCode":"01450","latitude":60.349978,"link":"https://www.alko.fi/tuotteet&#63;SearchParameter=%26%40QueryTerm%3D*%26OnlineFlag%3D1%26productInStore%3D2163&productInStore=2163&SelectedFilter=AvailabilityGroup&PageSize=1000","storeId":"2163","uuid":".KzAqHilRRAAAAFVXV0wMkn1","outletTypeId":"outletType_myymalat","phone":"020 692 771","name":"Alko Vantaa Korso","longitude":25.079448},{"OpenDay0":"0","OpenDay1":"9-20","address":"Iskoskuja 3","city":"VANTAA","postalCode":"01600","latitude":60.259856,"link":"https://www.alko.fi/tuotteet&#63;SearchParameter=%26%40QueryTerm%3D*%26OnlineFlag%3D1%26productInStore%3D2162&productInStore=2162&SelectedFilter=AvailabilityGroup&PageSize=1000","storeId":"2162","uuid":"q.fAqHilujYAAAFV8FYwMkn1","outletTypeId":"outletType_myymalat","phone":"020 692 771","name":"Alko Vantaa Myyrmäki Myyrmanni","longitude":24.851973},{"OpenDay0":"0","OpenDay1":"9-20","address":"Vantaanportinkatu 3","city":"VANTAA","postalCode":"01510","latitude":60.291027,"link":"https://www.alko.fi/tuotteet&#63;SearchParameter=%26%40QueryTerm%3D*%26OnlineFlag%3D1%26productInStore%3D2164&productInStore=2164&SelectedFilter=AvailabilityGroup&PageSize=1000","storeId":"2164","uuid":"CWjAqHil_9QAAAFVHWUwMkn1","outletTypeId":"outletType_myymalat","phone":"020 692 771","name":"Alko Vantaa Pakkala Jumbo","longitude":24.965878},{"OpenDay0":"0","OpenDay1":"10-20","address":"Valuuttakatu 2","city":"VANTAA","postalCode":"01510","latitude":60.292564,"link":"https://www.alko.fi/tuotteet&#63;SearchParameter=%26%40QueryTerm%3D*%26OnlineFlag%3D1%26productInStore%3D2169&productInStore=2169&SelectedFilter=AvailabilityGroup&PageSize=1000","storeId":"2169","uuid":"SQPAqHilVpQAAAFVPIEwMkn1","outletTypeId":"outletType_myymalat","phone":"020 692 771","name":"Alko Vantaa Pakkala Jumbo Stockmann","longitude":24.963051},{"OpenDay0":"0","OpenDay1":"9-20","address":"Tammiston Kauppatie 9","city":"VANTAA","postalCode":"01510","latitude":60.274556,"link":"https://www.alko.fi/tuotteet&#63;SearchParameter=%26%40QueryTerm%3D*%26OnlineFlag%3D1%26productInStore%3D2168&productInStore=2168&SelectedFilter=AvailabilityGroup&PageSize=1000","storeId":"2168","uuid":"cpDAqHilmBoAAAFVM3owMkn1","outletTypeId":"outletType_myymalat","phone":"020 692 771","name":"Alko Vantaa Tammisto Citymarket","longitude":24.970769},{"OpenDay0":"0","OpenDay1":"9-20","address":"Peltolantie 1","city":"VANTAA","postalCode":"01300","latitude":60.293733,"link":"https://www.alko.fi/tuotteet&#63;SearchParameter=%26%40QueryTerm%3D*%26OnlineFlag%3D1%26productInStore%3D2161&productInStore=2161&SelectedFilter=AvailabilityGroup&PageSize=1000","storeId":"2161","uuid":"0nvAqHilZy8AAAFVe1EwMkn1","outletTypeId":"outletType_myymalat","phone":"020 692 771","name":"Alko Vantaa Tikkurila","longitude":25.032216},{"OpenDay0":"0","OpenDay1":"9-20","address":"Kauppakatu 74","city":"VARKAUS","postalCode":"78200","latitude":62.31833606,"link":"https://www.alko.fi/tuotteet&#63;SearchParameter=%26%40QueryTerm%3D*%26OnlineFlag%3D1%26productInStore%3D2736&productInStore=2736&SelectedFilter=AvailabilityGroup&PageSize=1000","storeId":"2736","uuid":"fFfAqHilUroAAAFVqocwMkn7","outletTypeId":"outletType_myymalat","phone":"020 711 2736","name":"Alko Varkaus","longitude":27.86121896},{"OpenDay0":"0","OpenDay1":"9-20","address":"Tuusankaari 1","city":"NUMMELA","postalCode":"03100","latitude":60.332434,"link":"https://www.alko.fi/tuotteet&#63;SearchParameter=%26%40QueryTerm%3D*%26OnlineFlag%3D1%26productInStore%3D2179&productInStore=2179&SelectedFilter=AvailabilityGroup&PageSize=1000","storeId":"2179","uuid":"OhjAqHilI64AAAFV1M8wMkn1","outletTypeId":"outletType_myymalat","phone":"020 711 2179","name":"Alko Vihti Nummela Citymarket","longitude":24.330636},{"OpenDay0":"0","OpenDay1":"9-18","address":"Pappilantie 14","city":"VIITASAARI","postalCode":"44500","latitude":63.076549,"link":"https://www.alko.fi/tuotteet&#63;SearchParameter=%26%40QueryTerm%3D*%26OnlineFlag%3D1%26productInStore%3D2485&productInStore=2485&SelectedFilter=AvailabilityGroup&PageSize=1000","storeId":"2485","uuid":"s6bAqHilqZUAAAFV1WAwMkn6","outletTypeId":"outletType_myymalat","phone":"020 711 2485","name":"Alko Viitasaari","longitude":25.862125},{"OpenDay0":"0","OpenDay1":"11-17","address":"Itätie 1","city":"VIROLAHTI","postalCode":"49900","latitude":60.585202,"link":"https://www.alko.fi/tuotteet&#63;SearchParameter=%26%40QueryTerm%3D*%26OnlineFlag%3D1%26productInStore%3D2773&productInStore=2773&SelectedFilter=AvailabilityGroup&PageSize=1000","storeId":"2773","uuid":"XAnAqHil5sgAAAFV5VcwMkn8","outletTypeId":"outletType_myymalat","phone":"020 711 2773","name":"Alko Virolahti","longitude":27.70975},{"OpenDay0":"0","OpenDay1":"9-18","address":"Pääskyntie 13","city":"VIRRAT","postalCode":"34800","latitude":62.240508,"link":"https://www.alko.fi/tuotteet&#63;SearchParameter=%26%40QueryTerm%3D*%26OnlineFlag%3D1%26productInStore%3D2436&productInStore=2436&SelectedFilter=AvailabilityGroup&PageSize=1000","storeId":"2436","uuid":"kZrAqHilYGcAAAFV3VAwMkn5","outletTypeId":"outletType_myymalat","phone":"020 711 2436","name":"Alko Virrat","longitude":23.780325},{"OpenDay0":"0","OpenDay1":"9-18","address":"Alkkulanraitti 75","city":"YLITORNIO","postalCode":"95600","latitude":66.326552,"link":"https://www.alko.fi/tuotteet&#63;SearchParameter=%26%40QueryTerm%3D*%26OnlineFlag%3D1%26productInStore%3D2876&productInStore=2876&SelectedFilter=AvailabilityGroup&PageSize=1000","storeId":"2876","uuid":"ewjAqHilTLkAAAFV0R4wMkn.","outletTypeId":"outletType_myymalat","phone":"020 711 2876","name":"Alko Ylitornio","longitude":23.677091},{"OpenDay0":"0","OpenDay1":"9-20","address":"Savarinkatu 9","city":"YLIVIESKA","postalCode":"84100","latitude":64.060569,"link":"https://www.alko.fi/tuotteet&#63;SearchParameter=%26%40QueryTerm%3D*%26OnlineFlag%3D1%26productInStore%3D2804&productInStore=2804&SelectedFilter=AvailabilityGroup&PageSize=1000","storeId":"2804","uuid":"JQHAqHilcSAAAAFVc9YwMkn8","outletTypeId":"outletType_myymalat","phone":"020 711 2804","name":"Alko Ylivieska","longitude":24.556233},{"OpenDay0":"0","OpenDay1":"9-20","address":"Lähdevainiontie 1","city":"YLÖJÄRVI","postalCode":"33480","latitude":61.563861,"link":"https://www.alko.fi/tuotteet&#63;SearchParameter=%26%40QueryTerm%3D*%26OnlineFlag%3D1%26productInStore%3D2474&productInStore=2474&SelectedFilter=AvailabilityGroup&PageSize=1000","storeId":"2474","uuid":"srLAqHilsgsAAAFV7fMwMkn5","outletTypeId":"outletType_myymalat","phone":"020 711 2474","name":"Alko Ylöjärvi","longitude":23.593738},{"OpenDay0":"0","OpenDay1":"9-18","address":"Oikotie 8","city":"ÄHTÄRI","postalCode":"63700","latitude":62.550163,"link":"https://www.alko.fi/tuotteet&#63;SearchParameter=%26%40QueryTerm%3D*%26OnlineFlag%3D1%26productInStore%3D2273&productInStore=2273&SelectedFilter=AvailabilityGroup&PageSize=1000","storeId":"2273","uuid":"YBfAqHill9AAAAFVjuAwMkn3","outletTypeId":"outletType_myymalat","phone":"020 711 2273","name":"Alko Ähtäri","longitude":24.086633},{"OpenDay0":"0","OpenDay1":"9-20","address":"Suonenjoentie 10","city":"ÄÄNEKOIVISTO","postalCode":"44250","latitude":62.518012,"link":"https://www.alko.fi/tuotteet&#63;SearchParameter=%26%40QueryTerm%3D*%26OnlineFlag%3D1%26productInStore%3D2455&productInStore=2455&SelectedFilter=AvailabilityGroup&PageSize=1000","storeId":"2455","uuid":"1dLAqHileHUAAAFVdI0wMkn5","outletTypeId":"outletType_myymalat","phone":"020 711 2455","name":"Alko Äänekoski Hirvaskangas","longitude":25.689394},{"OpenDay0":"0","OpenDay1":"9-20","address":"Matkakatu 2","city":"ÄÄNEKOSKI","postalCode":"44100","latitude":62.601088,"link":"https://www.alko.fi/tuotteet&#63;SearchParameter=%26%40QueryTerm%3D*%26OnlineFlag%3D1%26productInStore%3D2488&productInStore=2488&SelectedFilter=AvailabilityGroup&PageSize=1000","storeId":"2488","uuid":"vq7AqHilC3IAAAFVb3EwMkn6","outletTypeId":"outletType_myymalat","phone":"020 711 2488","name":"Alko Äänekoski keskusta","longitude":25.724241},{"OpenDay0":"0","OpenDay1":"9-17","address":"Satamatie 10","city":"ANTTOLA","postalCode":"52100","latitude":61.583616,"link":"https://www.alko.fi/tuotteet&#63;SearchParameter=%26%40QueryTerm%3D*%26OnlineFlag%3D1%26productInStore%3D272202&productInStore=272202&SelectedFilter=AvailabilityGroup&PageSize=1000","storeId":"272202","uuid":"2f_AqHiljmQAAAFV2dgwMkn_","outletTypeId":"outletType_tilauspalvelupisteet","phone":"015 660 442","name":"Anttolan Kone ja Urheilu Oy","longitude":27.651979},{"OpenDay0":"0","OpenDay1":"8:30-17","address":"Kauppamiehentie 6","city":"KORPPOO","postalCode":"21710","latitude":60.16236928,"link":"https://www.alko.fi/tuotteet&#63;SearchParameter=%26%40QueryTerm%3D*%26OnlineFlag%3D1%26productInStore%3D222701&productInStore=222701&SelectedFilter=AvailabilityGroup&PageSize=1000","storeId":"222701","uuid":"z6TAqHilgooAAAFVKsAwMkn.","outletTypeId":"outletType_tilauspalvelupisteet","phone":"(02) 463 1033","name":"BMA Miljö","longitude":21.56144682},{"OpenDay0":"0","OpenDay1":"9-18","address":"Valhallantie 20","city":"BARÖSUND","postalCode":"10270","latitude":59.977162,"link":"https://www.alko.fi/tuotteet&#63;SearchParameter=%26%40QueryTerm%3D*%26OnlineFlag%3D1%26productInStore%3D217503&productInStore=217503&SelectedFilter=AvailabilityGroup&PageSize=1000","storeId":"217503","uuid":"z5vAqHilKTUAAAFVoocwMkn.","outletTypeId":"outletType_tilauspalvelupisteet","phone":"045 6159 466","name":"Barösunds Boden","longitude":23.88154},{"OpenDay0":"0","OpenDay1":"9-20","address":"Honkajoentie 14","city":"ISOJOKI","postalCode":"64900","latitude":62.111477,"link":"https://www.alko.fi/tuotteet&#63;SearchParameter=%26%40QueryTerm%3D*%26OnlineFlag%3D1%26productInStore%3D228001&productInStore=228001&SelectedFilter=AvailabilityGroup&PageSize=1000","storeId":"228001","uuid":"ufTAqHilJukAAAFV0DowMkn_","outletTypeId":"outletType_tilauspalvelupisteet","phone":"(06) 263 1418","name":"Cafe Meteora","longitude":21.963743},{"OpenDay0":"0","OpenDay1":"9-18","address":"Tirroniementie 1","city":"YLLÄSJÄRVI","postalCode":"95980","latitude":67.524765,"link":"https://www.alko.fi/tuotteet&#63;SearchParameter=%26%40QueryTerm%3D*%26OnlineFlag%3D1%26productInStore%3D288004&productInStore=288004&SelectedFilter=AvailabilityGroup&PageSize=1000","storeId":"288004","uuid":".WHAqHilkv8AAAFV1uAwMkoA","outletTypeId":"outletType_tilauspalvelupisteet","phone":"(016) 565 501","name":"Eelin Kauppa","longitude":24.304489},{"OpenDay0":"0","OpenDay1":"9-21","address":"Keskustie 28","city":"PYLKÖNMÄKI","postalCode":"43440","latitude":62.66807373,"link":"https://www.alko.fi/tuotteet&#63;SearchParameter=%26%40QueryTerm%3D*%26OnlineFlag%3D1%26productInStore%3D248301&productInStore=248301&SelectedFilter=AvailabilityGroup&PageSize=1000","storeId":"248301","uuid":"3anAqHilRqIAAAFVo2owMkn_","outletTypeId":"outletType_tilauspalvelupisteet","phone":"040 1840 227","name":"Eväspesti Pylkönmäki","longitude":24.8057406},{"OpenDay0":"0","OpenDay1":"8-17:30","address":"Asematie 11","city":"VIHANTI","postalCode":"86400","latitude":64.485856,"link":"https://www.alko.fi/tuotteet&#63;SearchParameter=%26%40QueryTerm%3D*%26OnlineFlag%3D1%26productInStore%3D281503&productInStore=281503&SelectedFilter=AvailabilityGroup&PageSize=1000","storeId":"281503","uuid":"XL3AqHilT84AAAFVamowMkoA","outletTypeId":"outletType_tilauspalvelupisteet","phone":"0440892285 (08) 280 059","name":"Hilakivi","longitude":24.992728},{"OpenDay0":"0","OpenDay1":"8-20","address":"Urheilutie 4","city":"RANTSILA","postalCode":"92500","latitude":64.505711,"link":"https://www.alko.fi/tuotteet&#63;SearchParameter=%26%40QueryTerm%3D*%26OnlineFlag%3D1%26productInStore%3D280801&productInStore=280801&SelectedFilter=AvailabilityGroup&PageSize=1000","storeId":"280801","uuid":"FyrAqHils2sAAAFV7lQwMkoA","outletTypeId":"outletType_tilauspalvelupisteet","phone":"0500-684950 (08) 250 171","name":"Huoltoasema Mäkelä","longitude":25.658362},{"OpenDay0":"0","OpenDay1":"9-18","address":"Poikkitie 19","city":"SYKÄRÄINEN","postalCode":"69410","latitude":63.616484,"link":"https://www.alko.fi/tuotteet&#63;SearchParameter=%26%40QueryTerm%3D*%26OnlineFlag%3D1%26productInStore%3D280102&productInStore=280102&SelectedFilter=AvailabilityGroup&PageSize=1000","storeId":"280102","uuid":"z7vAqHil8XwAAAFVhEcwMkoA","outletTypeId":"outletType_tilauspalvelupisteet","phone":"(06) 862 3003","name":"JiiPeen valinta T:mi","longitude":24.405857},{"OpenDay0":"0","OpenDay1":"9-17","address":"Kajaanintie 1","city":"VUOLIJOKI","postalCode":"88270","latitude":64.1828087,"link":"https://www.alko.fi/tuotteet&#63;SearchParameter=%26%40QueryTerm%3D*%26OnlineFlag%3D1%26productInStore%3D282506&productInStore=282506&SelectedFilter=AvailabilityGroup&PageSize=1000","storeId":"282506","uuid":"jh3AqHilgWUAAAFVWnUwMkoA","outletTypeId":"outletType_tilauspalvelupisteet","phone":"(08) 688 5454","name":"Juhlapalvelu Runokki","longitude":26.9968218},{"OpenDay0":"0","OpenDay1":"8-21","address":"Leppälänkyläntie 15","city":"KANNONKOSKI","postalCode":"43300","latitude":62.978112,"link":"https://www.alko.fi/tuotteet&#63;SearchParameter=%26%40QueryTerm%3D*%26OnlineFlag%3D1%26productInStore%3D248403&productInStore=248403&SelectedFilter=AvailabilityGroup&PageSize=1000","storeId":"248403","uuid":"msjAqHil.f8AAAFVsXcwMkn_","outletTypeId":"outletType_tilauspalvelupisteet","phone":"(014) 451 311","name":"K-Extra Kannontori","longitude":25.26556},{"OpenDay0":"0","OpenDay1":"9-20","address":"Ahlaistentie 658","city":"AHLAINEN","postalCode":"29700","latitude":61.670828,"link":"https://www.alko.fi/tuotteet&#63;SearchParameter=%26%40QueryTerm%3D*%26OnlineFlag%3D1%26productInStore%3D225102&productInStore=225102&SelectedFilter=AvailabilityGroup&PageSize=1000","storeId":"225102","uuid":"invAqHilLrwAAAFVlugwMkn.","outletTypeId":"outletType_tilauspalvelupisteet","phone":"02 548 6035","name":"K-Market Ahlainen","longitude":21.643198},{"OpenDay0":"0","OpenDay1":"9-20","address":"Luovontie 150","city":"HAILUOTO","postalCode":"90480","latitude":65.014036,"link":"https://www.alko.fi/tuotteet&#63;SearchParameter=%26%40QueryTerm%3D*%26OnlineFlag%3D1%26productInStore%3D283301&productInStore=283301&SelectedFilter=AvailabilityGroup&PageSize=1000","storeId":"283301","uuid":"OV_AqHilfHcAAAFVE4IwMkoA","outletTypeId":"outletType_tilauspalvelupisteet","phone":"0405155840","name":"K-Market Hailuoto","longitude":24.73168},{"OpenDay0":"0","OpenDay1":"8-18","address":"Vanttausjärventie 7","city":"VANTTAUSKOSKI","postalCode":"97625","latitude":66.377214,"link":"https://www.alko.fi/tuotteet&#63;SearchParameter=%26%40QueryTerm%3D*%26OnlineFlag%3D1%26productInStore%3D285902&productInStore=285902&SelectedFilter=AvailabilityGroup&PageSize=1000","storeId":"285902","uuid":"_MXAqHil.v4AAAFViMwwMkoA","outletTypeId":"outletType_tilauspalvelupisteet","phone":"(016) 784 201","name":"K-Market Jokitori","longitude":26.681474},{"OpenDay0":"0","OpenDay1":"8-21","address":"Viaksentie 99","city":"ÖVERMALAX","postalCode":"66140","latitude":62.918922,"link":"https://www.alko.fi/tuotteet&#63;SearchParameter=%26%40QueryTerm%3D*%26OnlineFlag%3D1%26productInStore%3D229104&productInStore=229104&SelectedFilter=AvailabilityGroup&PageSize=1000","storeId":"229104","uuid":".bTAqHilIP0AAAFV2k0wMkn_","outletTypeId":"outletType_tilauspalvelupisteet","phone":"020 7691 203","name":"K-Market Maalahti","longitude":21.630963},{"OpenDay0":"0","OpenDay1":"9-18","address":"Tuulikalliontie 47","city":"NARVA","postalCode":"37370","latitude":61.295269,"link":"https://www.alko.fi/tuotteet&#63;SearchParameter=%26%40QueryTerm%3D*%26OnlineFlag%3D1%26productInStore%3D246504&productInStore=246504&SelectedFilter=AvailabilityGroup&PageSize=1000","storeId":"246504","uuid":"q6nAqHilN6QAAAFV2lwwMkn_","outletTypeId":"outletType_tilauspalvelupisteet","phone":"(03) 373 7070","name":"K-Market Narva","longitude":23.504968},{"OpenDay0":"0","OpenDay1":"9:30-17:30","address":"Vöyrintie 5","city":"VÖYRI","postalCode":"66600","latitude":63.129889,"link":"https://www.alko.fi/tuotteet&#63;SearchParameter=%26%40QueryTerm%3D*%26OnlineFlag%3D1%26productInStore%3D324001&productInStore=324001&SelectedFilter=AvailabilityGroup&PageSize=1000","storeId":"324001","uuid":"jNfAqHhGFfUAAAFelf0K6u8y","outletTypeId":"outletType_tilauspalvelupisteet","phone":"050 442 0122","name":"KaffiKåppin","longitude":22.252297},{"OpenDay0":"0","OpenDay1":"7-20","address":"Kestilänraitti 2","city":"KESTILÄ","postalCode":"92700","latitude":64.352484,"link":"https://www.alko.fi/tuotteet&#63;SearchParameter=%26%40QueryTerm%3D*%26OnlineFlag%3D1%26productInStore%3D283303&productInStore=283303&SelectedFilter=AvailabilityGroup&PageSize=1000","storeId":"283303","uuid":"nOHAqHiljtsAAAFVH4kwMkoA","outletTypeId":"outletType_tilauspalvelupisteet","phone":"(08) 812 2133","name":"Kestilän TB-huoltamo","longitude":26.289727},{"OpenDay0":"0","OpenDay1":"7-19","address":"Jääjoentie 31","city":"KINNULA","postalCode":"43900","latitude":63.371451,"link":"https://www.alko.fi/tuotteet&#63;SearchParameter=%26%40QueryTerm%3D*%26OnlineFlag%3D1%26productInStore%3D280101&productInStore=280101&SelectedFilter=AvailabilityGroup&PageSize=1000","storeId":"280101","uuid":"VMHAqHil2FUAAAFV5UEwMkoA","outletTypeId":"outletType_tilauspalvelupisteet","phone":"050-5769995, Mari 0503407780","name":"Kinnulan Parlamentti","longitude":24.974895},{"OpenDay0":"0","OpenDay1":"7-19","address":"Toijantie 1","city":"KISKO","postalCode":"25460","latitude":60.265779,"link":"https://www.alko.fi/tuotteet&#63;SearchParameter=%26%40QueryTerm%3D*%26OnlineFlag%3D1%26productInStore%3D223103&productInStore=223103&SelectedFilter=AvailabilityGroup&PageSize=1000","storeId":"223103","uuid":"x0rAqHilyb4AAAFV19kwMkn.","outletTypeId":"outletType_tilauspalvelupisteet","phone":"(02) 739 1119","name":"Kiskon Liikenneasema","longitude":23.447559},{"OpenDay0":"0","OpenDay1":"8-19","address":"Keskustie 27","city":"KIVIJÄRVI","postalCode":"43800","latitude":63.120296,"link":"https://www.alko.fi/tuotteet&#63;SearchParameter=%26%40QueryTerm%3D*%26OnlineFlag%3D1%26productInStore%3D248402&productInStore=248402&SelectedFilter=AvailabilityGroup&PageSize=1000","storeId":"248402","uuid":"tpDAqHilw7wAAAFVTHEwMkn_","outletTypeId":"outletType_tilauspalvelupisteet","phone":"014 481567","name":"Kivijärven Grilli-Kahvio Ky","longitude":25.072955},{"OpenDay0":"0","OpenDay1":"9-17","address":"Hämeentie 9","city":"KOSKI TL","postalCode":"31500","latitude":60.653137,"link":"https://www.alko.fi/tuotteet&#63;SearchParameter=%26%40QueryTerm%3D*%26OnlineFlag%3D1%26productInStore%3D223801&productInStore=223801&SelectedFilter=AvailabilityGroup&PageSize=1000","storeId":"223801","uuid":"M5_AqHill2UAAAFVFeEwMkn.","outletTypeId":"outletType_tilauspalvelupisteet","phone":"(02) 484 1139","name":"Koski Tl, Matkahuolto","longitude":23.140418},{"OpenDay0":"0","OpenDay1":"8:30-15","address":"Hirvensalmentie 25","city":"HIRVENSALMI","postalCode":"52550","latitude":61.641667,"link":"https://www.alko.fi/tuotteet&#63;SearchParameter=%26%40QueryTerm%3D*%26OnlineFlag%3D1%26productInStore%3D272203&productInStore=272203&SelectedFilter=AvailabilityGroup&PageSize=1000","storeId":"272203","uuid":"8R7AqHilFH4AAAFVGN8wMkn_","outletTypeId":"outletType_tilauspalvelupisteet","phone":"010 439 1140","name":"Kukka-kahvila","longitude":26.774142},{"OpenDay0":"0","OpenDay1":"0","address":"Ihattulantie 2 B","city":"TAIVASSALO","postalCode":"23310","latitude":60.56173,"link":"https://www.alko.fi/tuotteet&#63;SearchParameter=%26%40QueryTerm%3D*%26OnlineFlag%3D1%26productInStore%3D220502&productInStore=220502&SelectedFilter=AvailabilityGroup&PageSize=1000","storeId":"220502","uuid":"ICrAqG5xR8gAAAFYziEmor1K","outletTypeId":"outletType_tilauspalvelupisteet","phone":"040 074 4640","name":"Kukkapuoti Vilhelmiina","longitude":21.614463},{"OpenDay0":"0","OpenDay1":"10-17","address":"Kauppakeskus Kuurna, Keskustie 45","city":"KUORTANE","postalCode":"63100","latitude":62.8054792,"link":"https://www.alko.fi/tuotteet&#63;SearchParameter=%26%40QueryTerm%3D*%26OnlineFlag%3D1%26productInStore%3D227204&productInStore=227204&SelectedFilter=AvailabilityGroup&PageSize=1000","storeId":"227204","uuid":"JNbAqHileW8AAAFV4RowMkn_","outletTypeId":"outletType_tilauspalvelupisteet","phone":"(06) 525 4289","name":"Kuortaneen Kirjakauppa","longitude":23.5065946},{"OpenDay0":"0","OpenDay1":"7-21","address":"Uotsolantie 43","city":"SASTAMALA","postalCode":"38460","latitude":61.513779,"link":"https://www.alko.fi/tuotteet&#63;SearchParameter=%26%40QueryTerm%3D*%26OnlineFlag%3D1%26productInStore%3D246505&productInStore=246505&SelectedFilter=AvailabilityGroup&PageSize=1000","storeId":"246505","uuid":"pdHAqHil5XQAAAFVzmQwMkn_","outletTypeId":"outletType_tilauspalvelupisteet","phone":"(03) 518 5296","name":"M Mouhijärven Rabatti","longitude":23.00945},{"OpenDay0":"0","OpenDay1":"9-21","address":"Tirmontie 611","city":"TIRMO","postalCode":"07360","latitude":60.2477,"link":"https://www.alko.fi/tuotteet&#63;SearchParameter=%26%40QueryTerm%3D*%26OnlineFlag%3D1%26productInStore%3D219005&productInStore=219005&SelectedFilter=AvailabilityGroup&PageSize=1000","storeId":"219005","uuid":"vNLAqHilUPAAAAFVCq0wMkn.","outletTypeId":"outletType_tilauspalvelupisteet","phone":"0500 822338","name":"M Tirmon Saaristokeskus","longitude":25.896979},{"OpenDay0":"0","OpenDay1":"10-17","address":"Kolebackvägen 2","city":"MOLPE","postalCode":"66210","latitude":62.86585,"link":"https://www.alko.fi/tuotteet&#63;SearchParameter=%26%40QueryTerm%3D*%26OnlineFlag%3D1%26productInStore%3D229101&productInStore=229101&SelectedFilter=AvailabilityGroup&PageSize=1000","storeId":"229101","uuid":"1z7AqHilmagAAAFVO0QwMkn_","outletTypeId":"outletType_tilauspalvelupisteet","phone":"06 347 6602","name":"Molpeboden","longitude":21.288027},{"OpenDay0":"0","OpenDay1":"9-20","address":"Keskustie 57","city":"KARJALOHJA","postalCode":"09120","latitude":60.244695,"link":"https://www.alko.fi/tuotteet&#63;SearchParameter=%26%40QueryTerm%3D*%26OnlineFlag%3D1%26productInStore%3D217701&productInStore=217701&SelectedFilter=AvailabilityGroup&PageSize=1000","storeId":"217701","uuid":"P3TAqHilFNcAAAFVuI0wMkn.","outletTypeId":"outletType_tilauspalvelupisteet","phone":"(019) 355 110","name":"Neste Karjalohja","longitude":23.731551},{"OpenDay0":"0","OpenDay1":"8-19","address":"Ylä-Satakunnantie 12","city":"KARVIA","postalCode":"39930","latitude":62.132521,"link":"https://www.alko.fi/tuotteet&#63;SearchParameter=%26%40QueryTerm%3D*%26OnlineFlag%3D1%26productInStore%3D226004&productInStore=226004&SelectedFilter=AvailabilityGroup&PageSize=1000","storeId":"226004","uuid":"_LrAqHilVEgAAAFV6AMwMkn_","outletTypeId":"outletType_tilauspalvelupisteet","phone":"(02) 5441930","name":"Neste Karvia","longitude":22.560013},{"OpenDay0":"0","OpenDay1":"6-20","address":"Jyväskyläntie 12","city":"RAUTALAMPI","postalCode":"77700","latitude":62.625586,"link":"https://www.alko.fi/tuotteet&#63;SearchParameter=%26%40QueryTerm%3D*%26OnlineFlag%3D1%26productInStore%3D275602&productInStore=275602&SelectedFilter=AvailabilityGroup&PageSize=1000","storeId":"275602","uuid":"VHvAqHiljWAAAAFVyhQwMkoA","outletTypeId":"outletType_tilauspalvelupisteet","phone":"(017) 530 080","name":"Neste Rautalampi","longitude":26.819827},{"OpenDay0":"0","OpenDay1":"9-20","outletTypeId":"outletType_tilauspalvelupisteet","city":"NÖTÖ","phone":"050 543 2905","postalCode":"21680","latitude":59.961506,"name":"Nötö Boden","link":"https://www.alko.fi/tuotteet&#63;SearchParameter=%26%40QueryTerm%3D*%26OnlineFlag%3D1%26productInStore%3D222702&productInStore=222702&SelectedFilter=AvailabilityGroup&PageSize=1000","storeId":"222702","uuid":"GBrAqHiloRUAAAFVacYwMkn.","longitude":21.765068},{"OpenDay0":"0","OpenDay1":"10-18","address":"Viitostie806 C","city":"PIISPAJÄRVI","postalCode":"89760","latitude":65.2986039,"link":"https://www.alko.fi/tuotteet&#63;SearchParameter=%26%40QueryTerm%3D*%26OnlineFlag%3D1%26productInStore%3D282801&productInStore=282801&SelectedFilter=AvailabilityGroup&PageSize=1000","storeId":"282801","uuid":"yv7AqHilxx8AAAFVPnswMkoA","outletTypeId":"outletType_tilauspalvelupisteet","phone":"050 586  9102","name":"Papupata Oy","longitude":29.0717507},{"OpenDay0":"0","OpenDay1":"8:30-19","address":"Rekijoentie","city":"TUUPOVAARA","postalCode":"82730","latitude":62.480675,"link":"https://www.alko.fi/tuotteet&#63;SearchParameter=%26%40QueryTerm%3D*%26OnlineFlag%3D1%26productInStore%3D270101&productInStore=270101&SelectedFilter=AvailabilityGroup&PageSize=1000","storeId":"270101","uuid":"LdbAqHil3DwAAAFVgIswMkn_","outletTypeId":"outletType_tilauspalvelupisteet","phone":"(013) 861 150","name":"Pirana, Tuupovaaran matkahuolto","longitude":30.627475},{"OpenDay0":"0","OpenDay1":"9-18","address":"Kultakeronkatu 4","city":"PYHÄTUNTURI","postalCode":"98530","latitude":67.018274,"link":"https://www.alko.fi/tuotteet&#63;SearchParameter=%26%40QueryTerm%3D*%26OnlineFlag%3D1%26productInStore%3D285303&productInStore=285303&SelectedFilter=AvailabilityGroup&PageSize=1000","storeId":"285303","uuid":"ARLAqHilhkQAAAFVG7IwMkoA","outletTypeId":"outletType_tilauspalvelupisteet","phone":"(016) 882 810","name":"Pyhäntähti","longitude":27.250633},{"OpenDay0":"0","OpenDay1":"7:30-18","address":"Asematie 4","city":"KEITELE","postalCode":"72600","latitude":63.179569,"link":"https://www.alko.fi/tuotteet&#63;SearchParameter=%26%40QueryTerm%3D*%26OnlineFlag%3D1%26productInStore%3D201201&productInStore=201201&SelectedFilter=AvailabilityGroup&PageSize=1000","storeId":"201201","uuid":"BjLAqG7SlgsAAAFaklwmsozC","outletTypeId":"outletType_tilauspalvelupisteet","phone":"040 152 5060","name":"Rantakulman Kahvila-ravintola ja suoramyynti","longitude":26.350233},{"OpenDay0":"0","OpenDay1":"7-20","address":"Pekkalantie 1","city":"RUUKKI","postalCode":"92400","latitude":64.658408,"link":"https://www.alko.fi/tuotteet&#63;SearchParameter=%26%40QueryTerm%3D*%26OnlineFlag%3D1%26productInStore%3D281501&productInStore=281501&SelectedFilter=AvailabilityGroup&PageSize=1000","storeId":"281501","uuid":"p6jAqHil7qQAAAFVhVswMkoA","outletTypeId":"outletType_tilauspalvelupisteet","phone":"(08) 271 180","name":"Ruukki, Teboil, Tmi Veli Lindelä","longitude":25.103372},{"OpenDay0":"0","OpenDay1":"7-18","address":"Vuorimiehentie 2","city":"OTANMÄKI","postalCode":"88200","latitude":64.1128803,"link":"https://www.alko.fi/tuotteet&#63;SearchParameter=%26%40QueryTerm%3D*%26OnlineFlag%3D1%26productInStore%3D282501&productInStore=282501&SelectedFilter=AvailabilityGroup&PageSize=1000","storeId":"282501","uuid":"VWPAqHilnLcAAAFVnW8wMkoA","outletTypeId":"outletType_tilauspalvelupisteet","phone":"(08) 688 6046","name":"SEO Otanmäki/ Keisarin Kievari","longitude":27.1042842},{"OpenDay0":"0","OpenDay1":"7-22","address":"Lukkarilantie 1","city":"LUVIA","postalCode":"29100","latitude":61.359789,"link":"https://www.alko.fi/tuotteet&#63;SearchParameter=%26%40QueryTerm%3D*%26OnlineFlag%3D1%26productInStore%3D225104&productInStore=225104&SelectedFilter=AvailabilityGroup&PageSize=1000","storeId":"225104","uuid":"ZHDAqHilYyEAAAFVMvIwMkn.","outletTypeId":"outletType_tilauspalvelupisteet","phone":"026252840","name":"Sale Luvia","longitude":21.62311},{"OpenDay0":"0","OpenDay1":"7-21","address":"Vanhatie 52","city":"PYHÄJOKI","postalCode":"86100","latitude":64.463086,"link":"https://www.alko.fi/tuotteet&#63;SearchParameter=%26%40QueryTerm%3D*%26OnlineFlag%3D1%26productInStore%3D281502&productInStore=281502&SelectedFilter=AvailabilityGroup&PageSize=1000","storeId":"281502","uuid":"JnHAqHilN6YAAAFVSGEwMkoA","outletTypeId":"outletType_tilauspalvelupisteet","phone":"044 788 4954","name":"Sale Pyhäjoki","longitude":24.257448},{"OpenDay0":"0","OpenDay1":"9-20","address":"Pajamäentie 3","city":"PYHÄRANTA","postalCode":"23950","latitude":60.950498,"link":"https://www.alko.fi/tuotteet&#63;SearchParameter=%26%40QueryTerm%3D*%26OnlineFlag%3D1%26productInStore%3D226501&productInStore=226501&SelectedFilter=AvailabilityGroup&PageSize=1000","storeId":"226501","uuid":"_prAqHilRNQAAAFV4wkwMkn_","outletTypeId":"outletType_tilauspalvelupisteet","phone":"(02) 8330760","name":"Sale Pyhäranta","longitude":21.442646},{"OpenDay0":"0","OpenDay1":"9-18","address":"Uittotie 2","city":"SAVUKOSKI","postalCode":"98800","latitude":67.29225,"link":"https://www.alko.fi/tuotteet&#63;SearchParameter=%26%40QueryTerm%3D*%26OnlineFlag%3D1%26productInStore%3D285310&productInStore=285310&SelectedFilter=AvailabilityGroup&PageSize=1000","storeId":"285310","uuid":"Y4DAqG6x4OMAAAFaaTMmWiXE","outletTypeId":"outletType_tilauspalvelupisteet","phone":"0107633501","name":"Sale Savukoski","longitude":28.157991},{"OpenDay0":"0","OpenDay1":"7-21","address":"Kurjentie 1","city":"TERVOLA","postalCode":"95300","latitude":66.09116,"link":"https://www.alko.fi/tuotteet&#63;SearchParameter=%26%40QueryTerm%3D*%26OnlineFlag%3D1%26productInStore%3D286503&productInStore=286503&SelectedFilter=AvailabilityGroup&PageSize=1000","storeId":"286503","uuid":"lGTAqHilZh0AAAFVd9IwMkoA","outletTypeId":"outletType_tilauspalvelupisteet","phone":"(044) 7884965","name":"Sale Tervola","longitude":24.813066},{"OpenDay0":"0","OpenDay1":"7-18","address":"Sodankyläntie 9","city":"PELKOSENNIEMI","postalCode":"98500","latitude":67.109663,"link":"https://www.alko.fi/tuotteet&#63;SearchParameter=%26%40QueryTerm%3D*%26OnlineFlag%3D1%26productInStore%3D285305&productInStore=285305&SelectedFilter=AvailabilityGroup&PageSize=1000","storeId":"285305","uuid":"NejAqHil8hYAAAFVar8wMkoA","outletTypeId":"outletType_tilauspalvelupisteet","phone":"040 7226635","name":"Seo Pelkosenniemi","longitude":27.516256},{"OpenDay0":"0","OpenDay1":"9-15:30","address":"Näsbyntie 192","city":"HOUTSKARI","postalCode":"21760","latitude":60.223036,"link":"https://www.alko.fi/tuotteet&#63;SearchParameter=%26%40QueryTerm%3D*%26OnlineFlag%3D1%26productInStore%3D222704&productInStore=222704&SelectedFilter=AvailabilityGroup&PageSize=1000","storeId":"222704","uuid":"FRTAqHil9mcAAAFVdMswMkn.","outletTypeId":"outletType_tilauspalvelupisteet","phone":"040 674 4015","name":"Skärgårdens Mixtura","longitude":21.372323},{"OpenDay0":"0","OpenDay1":"10-22","address":"Sommarönranta 19","city":"TAMMISAARI","postalCode":"10600","latitude":59.90007306,"link":"https://www.alko.fi/tuotteet&#63;SearchParameter=%26%40QueryTerm%3D*%26OnlineFlag%3D1%26productInStore%3D217302&productInStore=217302&SelectedFilter=AvailabilityGroup&PageSize=1000","storeId":"217302","uuid":"tFvAqHilHngAAAFV.nYwMkn.","outletTypeId":"outletType_tilauspalvelupisteet","phone":"040 861 0274","name":"Sommaröstrand Vierassatama","longitude":23.41239963},{"OpenDay0":"0","OpenDay1":"7-19","address":"Savontie 1","city":"RAUTAVAARA","postalCode":"73900","latitude":63.497481,"link":"https://www.alko.fi/tuotteet&#63;SearchParameter=%26%40QueryTerm%3D*%26OnlineFlag%3D1%26productInStore%3D274104&productInStore=274104&SelectedFilter=AvailabilityGroup&PageSize=1000","storeId":"274104","uuid":"A2vAqHilulEAAAFVCeUwMkn_","outletTypeId":"outletType_tilauspalvelupisteet","phone":"(017) 780 157","name":"St 1 Rautavaara","longitude":28.30433},{"OpenDay0":"0","OpenDay1":"6-18","address":"Kauppatie 22","city":"VARPAISJÄRVI","postalCode":"73200","latitude":63.360768,"link":"https://www.alko.fi/tuotteet&#63;SearchParameter=%26%40QueryTerm%3D*%26OnlineFlag%3D1%26productInStore%3D274707&productInStore=274707&SelectedFilter=AvailabilityGroup&PageSize=1000","storeId":"274707","uuid":"1VDAqHilAGMAAAFVZgkwMkoA","outletTypeId":"outletType_tilauspalvelupisteet","phone":"040 657 3668","name":"St1 Varpaisjärvi","longitude":27.755063},{"OpenDay0":"0","OpenDay1":"6:30-20","address":"Keskustie 23","city":"VESANTO","postalCode":"72300","latitude":62.928505,"link":"https://www.alko.fi/tuotteet&#63;SearchParameter=%26%40QueryTerm%3D*%26OnlineFlag%3D1%26productInStore%3D328001&productInStore=328001&SelectedFilter=AvailabilityGroup&PageSize=1000","storeId":"328001","uuid":"X.nAqHjrYzsAAAFaBFAmZs.2","outletTypeId":"outletType_tilauspalvelupisteet","phone":"017 650 300","name":"Teboil Vesanto","longitude":26.402932},{"OpenDay0":"0","OpenDay1":"9-17","address":"Vinkkiläntie 20","city":"VINKKILÄ","postalCode":"23200","latitude":60.68698038,"link":"https://www.alko.fi/tuotteet&#63;SearchParameter=%26%40QueryTerm%3D*%26OnlineFlag%3D1%26productInStore%3D222101&productInStore=222101&SelectedFilter=AvailabilityGroup&PageSize=1000","storeId":"222101","uuid":"MoTAqHilIJwAAAFV07gwMkn.","outletTypeId":"outletType_tilauspalvelupisteet","phone":"044 060 0462","name":"Tee Tee Palvelut Oy","longitude":21.71508674},{"OpenDay0":"0","OpenDay1":"10-20","address":"Siuntiontie 504","city":"SIUNTIO","postalCode":"02580","latitude":60.107059,"link":"https://www.alko.fi/tuotteet&#63;SearchParameter=%26%40QueryTerm%3D*%26OnlineFlag%3D1%26productInStore%3D217702&productInStore=217702&SelectedFilter=AvailabilityGroup&PageSize=1000","storeId":"217702","uuid":"cEHAqHilDegAAAFVYJMwMkn.","outletTypeId":"outletType_tilauspalvelupisteet","phone":"(09) 256 2075","name":"Tonin kioski","longitude":24.24189},{"OpenDay0":"0","OpenDay1":"9-18","address":"Romekievarintie","city":"SYÖTE","postalCode":"93280","latitude":65.625199,"link":"https://www.alko.fi/tuotteet&#63;SearchParameter=%26%40QueryTerm%3D*%26OnlineFlag%3D1%26productInStore%3D284301&productInStore=284301&SelectedFilter=AvailabilityGroup&PageSize=1000","storeId":"284301","uuid":"vz7AqHilJIcAAAFVaZYwMkoA","outletTypeId":"outletType_tilauspalvelupisteet","phone":"","name":"Tunturi Market","longitude":27.631278},{"OpenDay0":"0","OpenDay1":"9-18","address":"Utsjoentie 1","city":"UTSJOKI","postalCode":"99980","latitude":69.907342,"link":"https://www.alko.fi/tuotteet&#63;SearchParameter=%26%40QueryTerm%3D*%26OnlineFlag%3D1%26productInStore%3D285107&productInStore=285107&SelectedFilter=AvailabilityGroup&PageSize=1000","storeId":"285107","uuid":"DI_AqHilGm0AAAFVUZwwMkoA","outletTypeId":"outletType_tilauspalvelupisteet","phone":"(016) 677 105","name":"Uulan Säästö","longitude":27.027083},{"OpenDay0":"0","OpenDay1":"8-21","address":"Patruunantie 10 A","city":"VIMPELI","postalCode":"62800","latitude":63.159619,"link":"https://www.alko.fi/tuotteet&#63;SearchParameter=%26%40QueryTerm%3D*%26OnlineFlag%3D1%26productInStore%3D227701&productInStore=227701&SelectedFilter=AvailabilityGroup&PageSize=1000","storeId":"227701","uuid":"YsHAqHilaTQAAAFVmTEwMkn_","outletTypeId":"outletType_tilauspalvelupisteet","phone":"020 764 1680","name":"Vetohalli Ulla Laakso Oy","longitude":23.825651},{"OpenDay0":"0","OpenDay1":"10-17","address":"Huoltotie 2","city":"VIEREMÄ","postalCode":"74200","latitude":63.742095,"link":"https://www.alko.fi/tuotteet&#63;SearchParameter=%26%40QueryTerm%3D*%26OnlineFlag%3D1%26productInStore%3D274107&productInStore=274107&SelectedFilter=AvailabilityGroup&PageSize=1000","storeId":"274107","uuid":"cRrAqHilM68AAAFVHuwwMkn_","outletTypeId":"outletType_tilauspalvelupisteet","phone":"(017) 715 190","name":"Vieremän Matkahuolto","longitude":27.001465},{"OpenDay0":"0","OpenDay1":"10-17","address":"Kaukolanraitti 40","city":"YLISTARO","postalCode":"61400","latitude":62.94603,"link":"https://www.alko.fi/tuotteet&#63;SearchParameter=%26%40QueryTerm%3D*%26OnlineFlag%3D1%26productInStore%3D227202&productInStore=227202&SelectedFilter=AvailabilityGroup&PageSize=1000","storeId":"227202","uuid":"c6PAqHil9FgAAAFVwRUwMkn_","outletTypeId":"outletType_tilauspalvelupisteet","phone":"(06) 474 0630","name":"Ylistaron Kirjakauppa","longitude":22.52689},{"OpenDay0":"0","OpenDay1":"8-20","address":"Kokkolantie 1116","city":"YPPÄRI","postalCode":"86170","latitude":64.402729,"link":"https://www.alko.fi/tuotteet&#63;SearchParameter=%26%40QueryTerm%3D*%26OnlineFlag%3D1%26productInStore%3D280201&productInStore=280201&SelectedFilter=AvailabilityGroup&PageSize=1000","storeId":"280201","uuid":"VNTAqHilZtcAAAFV8U4wMkoA","outletTypeId":"outletType_tilauspalvelupisteet","phone":"(08) 433 423","name":"Yppärin Autohuolto Oy","longitude":24.090121}]}